{
  "agent_1": {
    "farms": [
      {
        "id": "1421",
        "name": "Annie's Orchard",
        "site": "https://www.facebook.com/profile.php?id=100068645952490",
        "phone": "765-430-0405",
        "full_address": "9624 W 75 S #9445, West Lafayette, IN 47906",
        "street": "9624 W 75 S #9445",
        "city": "West Lafayette",
        "postal_code": "47906",
        "state": "Indiana",
        "reviews": "52",
        "working_hours": "",
        "imported_at": "2025-08-23 16:58:34.414722+00",
        "dup_key": "annie's orchard|west lafayette|indiana",
        "quality_score": "122",
        "is_primary": "TRUE",
        "latitude": "40.406506",
        "longitude": "-87.0861479",
        "coord": "0101000020E61000009F477B7283C555C05BD07B6308344440",
        "has upick": "",
        "upick offerings": "",
        "upick source": ""
      },
      {
        "id": "1097",
        "name": "Riverbed Farm",
        "site": "http://www.theriverbedfarm.com/",
        "phone": "",
        "full_address": "1426 E Vermont Ave, Anaheim, CA 92805",
        "street": "1426 E Vermont Ave",
        "city": "Anaheim",
        "postal_code": "92805",
        "state": "California",
        "reviews": "82",
        "working_hours": "{\"Sunday\": \"Closed\", \"Monday\": \"9AM-1PM\", \"Tuesday\": \"Closed\", \"Wednesday\": \"9AM-1PM\", \"Thursday\": \"Closed\", \"Friday\": \"2-6PM\",NO,,,132,TRUE,33.8260568,-117.8934741,0101000020E6100000ADD4FDAD2E795DC0B851AE3ABCE94040,,,\n1098,Blueberry Thrill Farm,http://www.blueberrythrillfarm.com/,336-449-7246,6938 Eaglesfield Rd",
        "imported_at": " Gibsonville",
        "dup_key": " NC 27249\"",
        "quality_score": "6938 Eaglesfield Rd",
        "is_primary": "Gibsonville",
        "latitude": "27249",
        "longitude": "North Carolina",
        "coord": "81",
        "has upick": "",
        "upick offerings": "2025-08-23 16:58:33.980573+00",
        "upick source": "blueberry thrill farm|gibsonville|north carolina",
        "null": [
          "151",
          "TRUE",
          "36.1398781",
          "-79.5780623",
          "0101000020E61000003C6304F9FEE453C09B768C86E7114240",
          "Yes",
          "blueberries; blackberries; apples; flowers",
          "https://www.blueberrythrillfarm.com/ ; https://upickfarmsusa.com/nc/guilford-county/blueberry-thrill-farm/"
        ]
      },
      {
        "id": "1778",
        "name": "Granny Pearls Farm",
        "site": "https://m.facebook.com/106930555038866/",
        "phone": "919-426-1772",
        "full_address": "7209 Mitchell Mill Rd, Zebulon, NC 27597",
        "street": "7209 Mitchell Mill Rd",
        "city": "Zebulon",
        "postal_code": "27597",
        "state": "North Carolina",
        "reviews": "33",
        "working_hours": "{\"Monday\": \"Closed\", \"Tuesday\": \"Closed\", \"Wednesday\": \"Closed\", \"Thursday\": \"Closed\", \"Friday\": \"Closed\", \"Saturday\": \"8AM-12PM\", \"Sunday\": \"Closed\"}",
        "imported_at": "2025-08-23 16:58:34.414722+00",
        "dup_key": "granny pearls farm|zebulon|north carolina",
        "quality_score": "103",
        "is_primary": "TRUE",
        "latitude": "35.8969897",
        "longitude": "-78.4220794",
        "coord": "0101000020E61000002ED45059039B53C0A72CF98ED0F24140",
        "has upick": "",
        "upick offerings": "",
        "upick source": ""
      },
      {
        "id": "1711",
        "name": "Vigil Farms",
        "site": "http://www.vigilfarms.com/home.html",
        "phone": "719-924-6718",
        "full_address": "4526 Austin Bluffs Pkwy, Colorado Springs, CO 80918",
        "street": "4526 Austin Bluffs Pkwy",
        "city": "Colorado Springs",
        "postal_code": "80918",
        "state": "Colorado",
        "reviews": "36",
        "working_hours": "{\"Sunday\": \"9AM-5PM\", \"Monday\": \"9AM-5PM\", \"Tuesday\": \"9AM-5PM\", \"Wednesday\": \"9AM-5PM\", \"Thursday\": \"9AM-5PM\", \"Friday\": \"9AM-5PM\", \"Saturday\": \"9AM-5PM\"}",
        "imported_at": "2025-08-23 16:58:34.414722+00",
        "dup_key": "vigil farms|colorado springs|colorado",
        "quality_score": "106",
        "is_primary": "TRUE",
        "latitude": "38.8982135",
        "longitude": "-104.7468767",
        "coord": "0101000020E61000003E29EED3CC2F5AC0B0A9F3A8F8724340",
        "has upick": "",
        "upick offerings": "",
        "upick source": ""
      },
      {
        "id": "1665",
        "name": "Apple Road Farm",
        "site": "https://m.facebook.com/Apple-Road-Farm-182786928457444/",
        "phone": "417-529-5715",
        "full_address": "10990 Apple Rd, Carthage, MO 64836",
        "street": "10990 Apple Rd",
        "city": "Carthage",
        "postal_code": "64836",
        "state": "Missouri",
        "reviews": "38",
        "working_hours": "{\"Monday\": \"10AM-4PM\", \"Tuesday\": \"10AM-4PM\", \"Wednesday\": \"10AM-4PM\", \"Thursday\": \"10AM-4PM\", \"Friday\": \"10AM-4PM\", \"Saturday\": \"Closed\", \"Sunday\": \"Closed\"}",
        "imported_at": "2025-08-23 16:58:34.414722+00",
        "dup_key": "apple road farm|carthage|missouri",
        "quality_score": "108",
        "is_primary": "TRUE",
        "latitude": "37.067055",
        "longitude": "-94.258539",
        "coord": "0101000020E6100000656F29E78B9057C043041C4295884240",
        "has upick": "",
        "upick offerings": "",
        "upick source": ""
      },
      {
        "id": "1482",
        "name": "Goodman Family Farm",
        "site": "https://www.facebook.com/GoodmanFamilyFarm",
        "phone": "724-446-9370",
        "full_address": "421 McGrogan, Ruffs Dale, PA 15679",
        "street": "421 McGrogan",
        "city": "Ruffs Dale",
        "postal_code": "15679",
        "state": "Pennsylvania",
        "reviews": "48",
        "working_hours": "",
        "imported_at": "2025-08-23 16:58:34.414722+00",
        "dup_key": "goodman family farm|ruffs dale|pennsylvania",
        "quality_score": "118",
        "is_primary": "TRUE",
        "latitude": "40.2332397",
        "longitude": "-79.6641947",
        "coord": "0101000020E61000004CAB7C2A82EA53C07ED069CCDA1D4440",
        "has upick": "",
        "upick offerings": "",
        "upick source": ""
      },
      {
        "id": "1401",
        "name": "Heagy's Orchard",
        "site": "https://www.heagysorchard.com/",
        "phone": "814-795-5617",
        "full_address": "7343 Mt Pleasant Rd, Meadville, PA 16335",
        "street": "7343 Mt Pleasant Rd",
        "city": "Meadville",
        "postal_code": "16335",
        "state": "Pennsylvania",
        "reviews": "54",
        "working_hours": "{\"Monday\": \"9AM-4:30PM\", \"Tuesday\": \"9AM-4:30PM\", \"Wednesday\": \"9AM-4:30PM\", \"Thursday\": \"9AM-4:30PM\", \"Friday\": \"9AM-4:30PM\", \"Saturday\": \"9AM-4:30PM\", \"Sunday\": \"Closed\"}",
        "imported_at": "2025-08-23 16:58:33.980573+00",
        "dup_key": "heagy's orchard|meadville|pennsylvania",
        "quality_score": "124",
        "is_primary": "TRUE",
        "latitude": "41.5652084",
        "longitude": "-80.1604614",
        "coord": "0101000020E61000004E51E4FF440A54C056B6B4BF58C84440",
        "has upick": "",
        "upick offerings": "",
        "upick source": ""
      },
      {
        "id": "2371",
        "name": "Middleburg Farm Swap- Strawbrries",
        "site": "",
        "phone": "904-343-2495",
        "full_address": "2292 Maluke Ln, Middleburg, FL 32068",
        "street": "",
        "city": "",
        "postal_code": "",
        "state": "",
        "reviews": "13",
        "working_hours": "{}",
        "imported_at": "2025-08-26 05:49:18.345127+00",
        "dup_key": "middleburg farm swap- strawbrries|+19043432495",
        "quality_score": "",
        "is_primary": "TRUE",
        "latitude": "30.074707",
        "longitude": "-81.931259",
        "coord": "0101000020E6100000C34659BF997B54C043C879FF1F133E40",
        "has upick": "",
        "upick offerings": "",
        "upick source": ""
      },
      {
        "id": "1368",
        "name": "Blue Jay Orchard",
        "site": "http://bluejayorchard.com/",
        "phone": "440-834-4318",
        "full_address": "17909 Rapids Rd, Hiram, OH 44234",
        "street": "17909 Rapids Rd",
        "city": "Hiram",
        "postal_code": "44234",
        "state": "Ohio",
        "reviews": "57",
        "working_hours": "{\"Monday\": \"Closed\", \"Tuesday\": \"Closed\", \"Wednesday\": \"Closed\", \"Thursday\": \"Closed\", \"Friday\": \"Closed\", \"Saturday\": \"8:30AM-5PM\", \"Sunday\": \"Closed\"}",
        "imported_at": "2025-08-23 16:58:33.980573+00",
        "dup_key": "blue jay orchard|hiram|ohio",
        "quality_score": "127",
        "is_primary": "TRUE",
        "latitude": "41.3827957",
        "longitude": "-81.169638",
        "coord": "0101000020E61000002A8A5759DB4A54C054461273FFB04440",
        "has upick": "",
        "upick offerings": "",
        "upick source": ""
      },
      {
        "id": "2468",
        "name": "Under The Vine - Dragon Fruit Farm",
        "site": "http://underthevinefarm.com/",
        "phone": "305-340-1221",
        "full_address": "11100 SW 296th St, Homestead, FL 33033",
        "street": "",
        "city": "",
        "postal_code": "",
        "state": "",
        "reviews": "17",
        "working_hours": "{}",
        "imported_at": "2025-08-26 05:49:18.345127+00",
        "dup_key": "under the vine - dragon fruit farm|+13053401221",
        "quality_score": "",
        "is_primary": "TRUE",
        "latitude": "25.492459",
        "longitude": "-80.369373",
        "coord": "0101000020E6100000A0C1A6CEA31754C0F19E03CB117E3940",
        "has upick": "",
        "upick offerings": "",
        "upick source": ""
      },
      {
        "id": "2105",
        "name": "Eastburn Farm",
        "site": "",
        "phone": "215-598-3396",
        "full_address": "1085 Durham Rd, Newtown, PA 18940",
        "street": "1085 Durham Rd",
        "city": "Newtown",
        "postal_code": "18940",
        "state": "Pennsylvania",
        "reviews": "21",
        "working_hours": "{\"Monday\": \"9AM-6PM\", \"Tuesday\": \"9AM-6PM\", \"Wednesday\": \"Closed\", \"Thursday\": \"9AM-6PM\", \"Friday\": \"9AM-6PM\", \"Saturday\": \"9AM-6PM\", \"Sunday\": \"9AM-6PM\"}",
        "imported_at": "2025-08-23 16:58:34.816308+00",
        "dup_key": "eastburn farm|newtown|pennsylvania",
        "quality_score": "41",
        "is_primary": "TRUE",
        "latitude": "40.2948386",
        "longitude": "-75.0054475",
        "coord": "0101000020E61000001496784059C052C0994C7045BD254440",
        "has upick": "",
        "upick offerings": "",
        "upick source": ""
      },
      {
        "id": "1226",
        "name": "Shingle Mill Blueberry Farm",
        "site": "https://www.facebook.com/Omodts",
        "phone": "208-946-3295",
        "full_address": "488 Shingle Mill Rd, Sandpoint, ID 83864",
        "street": "488 Shingle Mill Rd",
        "city": "Sandpoint",
        "postal_code": "83864",
        "state": "Idaho",
        "reviews": "67",
        "working_hours": "",
        "imported_at": "2025-08-23 16:58:33.980573+00",
        "dup_key": "shingle mill blueberry farm|sandpoint|idaho",
        "quality_score": "137",
        "is_primary": "TRUE",
        "latitude": "48.3225367",
        "longitude": "-116.4897075",
        "coord": "0101000020E6100000C746205E571F5DC04021F1E148294840",
        "has upick": "",
        "upick offerings": "",
        "upick source": ""
      },
      {
        "id": "1197",
        "name": "G&S Farms-Denali",
        "site": "http://gsfarms.net/",
        "phone": "",
        "full_address": "23601-23647 Marsh Creek Rd, Brentwood, CA 94513",
        "street": "23601-23647 Marsh Creek Rd",
        "city": "Brentwood",
        "postal_code": "94513",
        "state": "California",
        "reviews": "70",
        "working_hours": "{\"Sunday\": \"8AM-5PM\", \"Monday\": \"Closed\", \"Tuesday\": \"Closed\", \"Wednesday\": \"9AM-5PM\", \"Thursday\": \"9AM-5PM\", \"Friday\": \"9AM-5PM\", \"Saturday\": \"8AM-5PM\"}",
        "imported_at": "2025-08-23 16:58:33.980573+00",
        "dup_key": "g&s farms-denali|brentwood|california",
        "quality_score": "120",
        "is_primary": "TRUE",
        "latitude": "37.8966155",
        "longitude": "-121.6897225",
        "coord": "0101000020E61000002F34D769246C5EC019CBF44BC4F24240",
        "has upick": "",
        "upick offerings": "",
        "upick source": ""
      },
      {
        "id": "1383",
        "name": "Miller Orchards",
        "site": "https://www.facebook.com/millerorchardspeshastinwa",
        "phone": "509-669-3784",
        "full_address": "7306 US-97, Peshastin, WA 98847",
        "street": "7306 US-97",
        "city": "Peshastin",
        "postal_code": "98847",
        "state": "Washington",
        "reviews": "56",
        "working_hours": "{\"Sunday\": \"9AM-5PM\", \"Monday\": \"8AM-5PM\", \"Tuesday\": \"8AM-5PM\", \"Wednesday\": \"8AM-5PM\", \"Thursday\": \"8AM-5PM\", \"Friday\": \"8AM-5PM\", \"Saturday\": \"9AM-5PM\"}",
        "imported_at": "2025-08-23 16:58:33.980573+00",
        "dup_key": "miller orchards|peshastin|washington",
        "quality_score": "126",
        "is_primary": "TRUE",
        "latitude": "47.5506366",
        "longitude": "-120.6086931",
        "coord": "0101000020E61000004173E7D3F4265EC0857D96427BC64740",
        "has upick": "",
        "upick offerings": "",
        "upick source": ""
      },
      {
        "id": "1655",
        "name": "LaCoe's Berry Nice Farm",
        "site": "https://www.facebook.com/pg/LacoesBerryNiceFarm/about/?ref=page_internal",
        "phone": "570-561-4031",
        "full_address": "10038 Valley View Dr, Clarks Summit, PA 18411",
        "street": "10038 Valley View Dr",
        "city": "Clarks Summit",
        "postal_code": "18411",
        "state": "Pennsylvania",
        "reviews": "38",
        "working_hours": "",
        "imported_at": "2025-08-23 16:58:34.414722+00",
        "dup_key": "lacoe's berry nice farm|clarks summit|pennsylvania",
        "quality_score": "108",
        "is_primary": "TRUE",
        "latitude": "41.4597745",
        "longitude": "-75.7523523",
        "coord": "0101000020E610000081E4428A26F052C071840CE4D9BA4440",
        "has upick": "",
        "upick offerings": "",
        "upick source": ""
      },
      {
        "id": "1686",
        "name": "Woods Farm",
        "site": "https://www.facebook.com/Woods-Farms-199475873434384/",
        "phone": "540-334-1719",
        "full_address": "2921 Naff Rd, Boones Mill, VA 24065",
        "street": "2921 Naff Rd",
        "city": "Boones Mill",
        "postal_code": "24065",
        "state": "Virginia",
        "reviews": "37",
        "working_hours": "{\"Monday\": \"9AM-5PM\", \"Tuesday\": \"9AM-5PM\", \"Wednesday\": \"9AM-5PM\", \"Thursday\": \"9AM-5PM\", \"Friday\": \"9AM-5PM\", \"Saturday\": \"9AM-4PM\", \"Sunday\": \"11AM-4PM\"}",
        "imported_at": "2025-08-23 16:58:34.414722+00",
        "dup_key": "woods farm|boones mill|virginia",
        "quality_score": "107",
        "is_primary": "TRUE",
        "latitude": "37.1496386",
        "longitude": "-80.0133677",
        "coord": "0101000020E6100000A8943204DB0054C0109C8E5B27934240",
        "has upick": "",
        "upick offerings": "",
        "upick source": ""
      },
      {
        "id": "2281",
        "name": "Fancy Farms",
        "site": "https://fancyfarmsmarket.com/",
        "phone": "",
        "full_address": "3524 Futch Loop, Plant City, FL 33566",
        "street": "",
        "city": "",
        "postal_code": "",
        "state": "",
        "reviews": "6",
        "working_hours": "{}",
        "imported_at": "2025-08-26 05:49:18.345127+00",
        "dup_key": "fancy farms|",
        "quality_score": "",
        "is_primary": "TRUE",
        "latitude": "28.005183",
        "longitude": "-82.072092",
        "coord": "0101000020E61000006893C3279D8454C0C37E4FAC53013C40",
        "has upick": "",
        "upick offerings": "",
        "upick source": ""
      },
      {
        "id": "2502",
        "name": "Blue Moon Berries",
        "site": "http://www.southernbellefarm.com/",
        "phone": "",
        "full_address": "5552 Moon Rd, Powder Springs, GA 30127",
        "street": "5552 Moon Rd",
        "city": "Powder Springs",
        "postal_code": "30127",
        "state": "Georgia",
        "reviews": "18",
        "working_hours": "{}",
        "imported_at": "2025-09-01 07:29:47.411559+00",
        "dup_key": "blue moon berries|powder springs|ga|30127",
        "quality_score": "48",
        "is_primary": "TRUE",
        "latitude": "33.8905297",
        "longitude": "-84.7169914",
        "coord": "0101000020E6100000D9A0E52FE32D55C0F0CE90E0FCF14040",
        "has upick": "",
        "upick offerings": "",
        "upick source": ""
      },
      {
        "id": "1170",
        "name": "JQ Fruit Farm & Orchard",
        "site": "https://www.jqfruitfarm.com/",
        "phone": "763-389-2567",
        "full_address": "8082 33rd St, Princeton, MN 55371",
        "street": "8082 33rd St",
        "city": "Princeton",
        "postal_code": "55371",
        "state": "Minnesota",
        "reviews": "72",
        "working_hours": "{\"Monday\": \"Closed\", \"Tuesday\": \"Closed\", \"Wednesday\": \"Closed\", \"Thursday\": \"Closed\", \"Friday\": \"Closed\", \"Saturday\": \"Closed\",YES,apples, blueberries, raspberries,https://www.jqfruitfarm.com/,142,TRUE,45.5916051,-93.5751964,0101000020E6100000B9B18F04D06457C0CB5246B7B9CB4640,,,\n1171,Lodi Blooms - The Orchard Experience - Cherry U-Pick,http://www.lodiblooms.com/,209-642-4295,11560 N Lower Sacramento Rd",
        "imported_at": " Lodi",
        "dup_key": " CA 95242\"",
        "quality_score": "11560 N Lower Sacramento Rd",
        "is_primary": "Lodi",
        "latitude": "95242",
        "longitude": "California",
        "coord": "72",
        "has upick": "",
        "upick offerings": "2025-08-23 16:58:33.980573+00",
        "upick source": "lodi blooms - the orchard experience - cherry u-pick|lodi|california",
        "null": [
          "142",
          "TRUE",
          "38.0721314",
          "YES",
          "cherries",
          "http://www.lodiblooms.com/",
          "",
          ""
        ]
      },
      {
        "id": "2405",
        "name": "Richie's Blueberries",
        "site": "https://www.facebook.com/Richies-Blueberries-694412404318285",
        "phone": "850-206-6139",
        "full_address": "5060 Ronnie Rd, Milton, FL 32583",
        "street": "",
        "city": "",
        "postal_code": "",
        "state": "",
        "reviews": "17",
        "working_hours": "{}",
        "imported_at": "2025-08-26 05:49:18.345127+00",
        "dup_key": "richie's blueberries|+18502066139",
        "quality_score": "",
        "is_primary": "TRUE",
        "latitude": "30.617684",
        "longitude": "-87.0016",
        "coord": "0101000020E61000001CEBE2361AC055C03143E389209E3E40",
        "has upick": "",
        "upick offerings": "",
        "upick source": ""
      }
    ],
    "count": 20,
    "status": "assigned",
    "assigned_at": "2025-09-07T04:30:45.560357"
  },
  "agent_2": {
    "farms": [
      {
        "id": "1613",
        "name": "Foothill Farm",
        "site": "",
        "phone": "570-249-9025",
        "full_address": "937 Mill Rd, Lehighton, PA 18235",
        "street": "937 Mill Rd",
        "city": "Lehighton",
        "postal_code": "18235",
        "state": "Pennsylvania",
        "reviews": "40",
        "working_hours": "{\"Monday\": \"3-7PM\", \"Tuesday\": \"3-7PM\", \"Wednesday\": \"3-7PM\", \"Thursday\": \"3-7PM\", \"Friday\": \"3-7PM\", \"Saturday\": \"9AM-5PM\", \"Sunday\": \"9AM-5PM\"}",
        "imported_at": "2025-08-23 16:58:34.414722+00",
        "dup_key": "foothill farm|lehighton|pennsylvania",
        "quality_score": "60",
        "is_primary": "TRUE",
        "latitude": "40.7985316",
        "longitude": "-75.8125258",
        "coord": "0101000020E6100000008A366C00F452C04969914836664440",
        "has upick": "",
        "upick offerings": "",
        "upick source": ""
      },
      {
        "id": "2100",
        "name": "Happy Farm",
        "site": "",
        "phone": "718-641-5253",
        "full_address": "120-01 Liberty Ave, South Richmond Hill, NY 11419",
        "street": "120-01 Liberty Ave",
        "city": "South Richmond Hill",
        "postal_code": "11419",
        "state": "New York",
        "reviews": "22",
        "working_hours": "{\"Monday\": \"9AM-8PM\", \"Tuesday\": \"9AM-8PM\", \"Wednesday\": \"9AM-8PM\", \"Thursday\": \"9AM-8PM\", \"Friday\": \"9AM-8PM\", \"Saturday\": \"9AM-8PM\", \"Sunday\": \"9AM-8PM\"}",
        "imported_at": "2025-08-23 16:58:34.816308+00",
        "dup_key": "happy farm|south richmond hill|new york",
        "quality_score": "42",
        "is_primary": "TRUE",
        "latitude": "40.68681",
        "longitude": "-73.8230885",
        "coord": "0101000020E6100000AD4D637BAD7452C06B48DC63E9574440",
        "has upick": "",
        "upick offerings": "",
        "upick source": ""
      },
      {
        "id": "1659",
        "name": "Endless View Farms",
        "site": "http://www.endlessviewfarms.com/",
        "phone": "540-820-7451",
        "full_address": "2513 Rockfish Rd, Crimora, VA 24431",
        "street": "2513 Rockfish Rd",
        "city": "Crimora",
        "postal_code": "24431",
        "state": "Virginia",
        "reviews": "38",
        "working_hours": "{\"Monday\": \"Closed\", \"Tuesday\": \"Closed\", \"Wednesday\": \"Closed\", \"Thursday\": \"Closed\", \"Friday\": \"Closed\", \"Saturday\": \"10AM-6PM\", \"Sunday\": \"10AM-6PM\"}",
        "imported_at": "2025-08-23 16:58:34.414722+00",
        "dup_key": "endless view farms|crimora|virginia",
        "quality_score": "108",
        "is_primary": "TRUE",
        "latitude": "38.1714868",
        "longitude": "-78.864627",
        "coord": "0101000020E6100000460F7C0C56B753C00CD98A47F3154340",
        "has upick": "",
        "upick offerings": "",
        "upick source": ""
      },
      {
        "id": "2160",
        "name": "L & J Edelen & Family's Homestead Farm",
        "site": "http://homesteadfarm.us/",
        "phone": "301-934-9004",
        "full_address": "10025 Lomax Rd, Faulkner, MD 20632",
        "street": "10025 Lomax Rd",
        "city": "Faulkner",
        "postal_code": "20632",
        "state": "Maryland",
        "reviews": "20",
        "working_hours": "{\"Monday\": \"Closed\", \"Tuesday\": \"6AM-6PM\", \"Wednesday\": \"Closed\", \"Thursday\": \"Closed\", \"Friday\": \"Closed\", \"Saturday\": \"6AM-6PM\", \"Sunday\": \"Closed\"}",
        "imported_at": "2025-08-23 16:58:34.816308+00",
        "dup_key": "l & j edelen & family's homestead farm|faulkner|maryland",
        "quality_score": "90",
        "is_primary": "TRUE",
        "latitude": "38.4445849",
        "longitude": "-76.9605679",
        "coord": "0101000020E61000009805C9F1793D53C0D1E57228E8384340",
        "has upick": "",
        "upick offerings": "",
        "upick source": ""
      },
      {
        "id": "2465",
        "name": "Turkey Hill Farm",
        "site": "http://www.localharvest.org/",
        "phone": "831-515-5602",
        "full_address": "Tallahassee, FL 32309",
        "street": "",
        "city": "",
        "postal_code": "",
        "state": "",
        "reviews": "1",
        "working_hours": "{}",
        "imported_at": "2025-08-26 05:49:18.345127+00",
        "dup_key": "turkey hill farm|+18315155602",
        "quality_score": "",
        "is_primary": "TRUE",
        "latitude": "30.515895",
        "longitude": "-84.095025",
        "coord": "0101000020E61000005BD3BCE3140655C0802BD9B111843E40",
        "has upick": "",
        "upick offerings": "",
        "upick source": ""
      },
      {
        "id": "1784",
        "name": "Sunrise U-pick Blueberries",
        "site": "https://www.facebook.com/SunriseBlueberry/",
        "phone": "971-832-5832",
        "full_address": "25863 NW West Union Rd, Hillsboro, OR 97124",
        "street": "25863 NW West Union Rd",
        "city": "Hillsboro",
        "postal_code": "97124",
        "state": "Oregon",
        "reviews": "33",
        "working_hours": "{\"Sunday\": \"9AM-2PM\", \"Monday\": \"Closed\", \"Tuesday\": \"Closed\", \"Wednesday\": \"9AM-2PM\", \"Thursday\": \"9AM-2PM\", \"Friday\": \"9AM-2PM\", \"Saturday\": \"9AM-2PM\"}",
        "imported_at": "2025-08-23 16:58:34.414722+00",
        "dup_key": "sunrise u-pick blueberries|hillsboro|oregon",
        "quality_score": "103",
        "is_primary": "TRUE",
        "latitude": "45.5846507",
        "longitude": "-122.9428927",
        "coord": "0101000020E6100000C7889F5A58BC5EC0B00A8AD5D5CA4640",
        "has upick": "",
        "upick offerings": "",
        "upick source": ""
      },
      {
        "id": "959",
        "name": "West Wind Farm at Blue Barn Cidery",
        "site": "http://www.westwindupick.com/",
        "phone": "585-234-0252",
        "full_address": "928 Manitou Rd, Hilton, NY 14468",
        "street": "928 Manitou Rd",
        "city": "Hilton",
        "postal_code": "14468",
        "state": "New York",
        "reviews": "101",
        "working_hours": "{\"Monday\": \"Closed\", \"Tuesday\": \"Closed\", \"Wednesday\": \"8AM-8PM\", \"Thursday\": \"8AM-8PM\", \"Friday\": \"8AM-4PM\", \"Saturday\": \"8AM-4PM\", \"Sunday\": \"8AM-4PM\"}",
        "imported_at": "2025-08-23 16:58:33.580418+00",
        "dup_key": "west wind farm at blue barn cidery|hilton|new york",
        "quality_score": "171",
        "is_primary": "TRUE",
        "latitude": "43.272484",
        "longitude": "-77.7502996",
        "coord": "0101000020E6100000EB0C9DE8047053C0755776C1E0A24540",
        "has upick": "",
        "upick offerings": "",
        "upick source": ""
      },
      {
        "id": "1527",
        "name": "Green Things Farm Collective",
        "site": "https://greenthingsfarm.com/",
        "phone": "734-772-1418",
        "full_address": "3825 Nixon Rd, Ann Arbor, MI 48105",
        "street": "3825 Nixon Rd",
        "city": "Ann Arbor",
        "postal_code": "48105",
        "state": "Michigan",
        "reviews": "46",
        "working_hours": "{\"Monday\": \"9AM-6PM\", \"Tuesday\": \"9AM-6PM\", \"Wednesday\": \"9AM-6PM\", \"Thursday\": \"9AM-6PM\", \"Friday\": \"9AM-6PM\", \"Saturday\": \"9AM-4PM\", \"Sunday\": \"9AM-4PM\"}",
        "imported_at": "2025-08-23 16:58:34.414722+00",
        "dup_key": "green things farm collective|ann arbor|michigan",
        "quality_score": "116",
        "is_primary": "TRUE",
        "latitude": "42.3288688",
        "longitude": "-83.7094192",
        "coord": "0101000020E6100000E3C9C91F67ED54C05F56725F182A4540",
        "has upick": "",
        "upick offerings": "",
        "upick source": ""
      },
      {
        "id": "2106",
        "name": "Fort Kluk Farm",
        "site": "http://www.facebook.com/fortklukohio/",
        "phone": "937-510-1483",
        "full_address": "804 Carpenter Rd, Sugarcreek Township, OH 45305",
        "street": "804 Carpenter Rd",
        "city": "Sugarcreek Township",
        "postal_code": "45305",
        "state": "Ohio",
        "reviews": "21",
        "working_hours": "{\"Monday\": \"10AM-8PM\", \"Tuesday\": \"10AM-8PM\", \"Wednesday\": \"10AM-8PM\", \"Thursday\": \"10AM-8PM\", \"Friday\": \"10AM-8PM\", \"Saturday\": \"10AM-8PM\", \"Sunday\": \"10AM-8PM\"}",
        "imported_at": "2025-08-23 16:58:34.816308+00",
        "dup_key": "fort kluk farm|sugarcreek township|ohio",
        "quality_score": "91",
        "is_primary": "TRUE",
        "latitude": "39.6724358",
        "longitude": "-84.0782251",
        "coord": "0101000020E61000007C8ED9A3010555C06ED4546012D64340",
        "has upick": "",
        "upick offerings": "",
        "upick source": ""
      },
      {
        "id": "1918",
        "name": "Red Rock Farms",
        "site": "",
        "phone": "301-524-4573",
        "full_address": "12641 Creagerstown Rd, Thurmont, MD 21788",
        "street": "12641 Creagerstown Rd",
        "city": "Thurmont",
        "postal_code": "21788",
        "state": "Maryland",
        "reviews": "27",
        "working_hours": "{\"Monday\": \"5AM-10PM\", \"Tuesday\": \"5AM-10PM\", \"Wednesday\": \"5AM-10PM\", \"Thursday\": \"5AM-10PM\", \"Friday\": \"5AM-10PM\", \"Saturday\": \"5AM-10PM\", \"Sunday\": \"5AM-10PM\"}",
        "imported_at": "2025-08-23 16:58:34.816308+00",
        "dup_key": "red rock farms|thurmont|maryland",
        "quality_score": "47",
        "is_primary": "TRUE",
        "latitude": "39.5838171",
        "longitude": "-77.3679346",
        "coord": "0101000020E61000004784903D8C5753C03BACCB84BACA4340",
        "has upick": "",
        "upick offerings": "",
        "upick source": ""
      },
      {
        "id": "1518",
        "name": "Spring Rain Farm",
        "site": "https://oldearthorchards.com/spring-rain-farm/",
        "phone": "508-822-2849",
        "full_address": "692 Caswell St, East Taunton, MA 02718",
        "street": "692 Caswell St",
        "city": "East Taunton",
        "postal_code": "2718",
        "state": "Massachusetts",
        "reviews": "46",
        "working_hours": "",
        "imported_at": "2025-08-23 16:58:34.414722+00",
        "dup_key": "spring rain farm|east taunton|massachusetts",
        "quality_score": "116",
        "is_primary": "TRUE",
        "latitude": "41.8704865",
        "longitude": "-71.0136137",
        "coord": "0101000020E6100000C311FF0BDFC051C0048E041A6CEF4440",
        "has upick": "",
        "upick offerings": "",
        "upick source": ""
      },
      {
        "id": "1648",
        "name": "Sutton Farms",
        "site": "",
        "phone": "386-843-1403",
        "full_address": "3255 Riverhead Dr, Deltona, FL 32738",
        "street": "3255 Riverhead Dr",
        "city": "Deltona",
        "postal_code": "32738",
        "state": "Florida",
        "reviews": "39",
        "working_hours": "",
        "imported_at": "2025-08-23 16:58:34.414722+00",
        "dup_key": "sutton farms|deltona|florida",
        "quality_score": "59",
        "is_primary": "TRUE",
        "latitude": "28.9404033",
        "longitude": "-81.1733724",
        "coord": "0101000020E6100000DB018D88184B54C0EC8C4A45BEF03C40",
        "has upick": "",
        "upick offerings": "",
        "upick source": ""
      },
      {
        "id": "1911",
        "name": "Berry Fields Farms",
        "site": "",
        "phone": "570-924-3019",
        "full_address": "138 Berry Ln, New Albany, PA 18833",
        "street": "138 Berry Ln",
        "city": "New Albany",
        "postal_code": "18833",
        "state": "Pennsylvania",
        "reviews": "28",
        "working_hours": "",
        "imported_at": "2025-08-23 16:58:34.816308+00",
        "dup_key": "berry fields farms|new albany|pennsylvania",
        "quality_score": "48",
        "is_primary": "TRUE",
        "latitude": "41.5902047",
        "longitude": "-76.5973696",
        "coord": "0101000020E6100000F9E7B34D3B2653C00739DED38BCB4440",
        "has upick": "",
        "upick offerings": "",
        "upick source": ""
      },
      {
        "id": "1381",
        "name": "Logue Farms, Inc.",
        "site": "",
        "phone": "203-232-0543",
        "full_address": "66 Artillery Rd, Woodbury, CT 06798",
        "street": "66 Artillery Rd",
        "city": "Woodbury",
        "postal_code": "6798",
        "state": "Connecticut",
        "reviews": "56",
        "working_hours": "{\"Monday\": \"9AM-6PM\", \"Tuesday\": \"9AM-6PM\", \"Wednesday\": \"9AM-5PM\", \"Thursday\": \"9AM-6PM\", \"Friday\": \"9AM-6PM\", \"Saturday\": \"9AM-6PM\", \"Sunday\": \"9AM-6PM\"}",
        "imported_at": "2025-08-23 16:58:33.980573+00",
        "dup_key": "logue farms, inc.|woodbury|connecticut",
        "quality_score": "76",
        "is_primary": "TRUE",
        "latitude": "41.5883979",
        "longitude": "-73.1572189",
        "coord": "0101000020E61000000A74DCDF0F4A52C07DC4549F50CB4440",
        "has upick": "",
        "upick offerings": "",
        "upick source": ""
      },
      {
        "id": "2009",
        "name": "Chilly Hollow Farm",
        "site": "http://chillyhollowproduce.com/",
        "phone": "610-574-0008",
        "full_address": "345 Chilly Hollow Rd, Berryville, VA 22611",
        "street": "345 Chilly Hollow Rd",
        "city": "Berryville",
        "postal_code": "22611",
        "state": "Virginia",
        "reviews": "24",
        "working_hours": "",
        "imported_at": "2025-08-23 16:58:34.816308+00",
        "dup_key": "chilly hollow farm|berryville|virginia",
        "quality_score": "94",
        "is_primary": "TRUE",
        "latitude": "39.1309255",
        "longitude": "-77.9255377",
        "coord": "0101000020E6100000C32D7A023C7B53C0315BB22AC2904340",
        "has upick": "",
        "upick offerings": "",
        "upick source": ""
      },
      {
        "id": "1390",
        "name": "Smith's farms pumpkin patch",
        "site": "",
        "phone": "706-371-9559",
        "full_address": "7272 Bowersville Hwy, Bowersville, GA 30516",
        "street": "7272 Bowersville Hwy",
        "city": "Bowersville",
        "postal_code": "30516",
        "state": "Georgia",
        "reviews": "55",
        "working_hours": "{\"Monday\": \"Closed\", \"Tuesday\": \"Closed\", \"Wednesday\": \"Closed\", \"Thursday\": \"Closed\", \"Friday\": \"11AM-5PM\", \"Saturday\": \"10AM-6:30PM\", \"Sunday\": \"12-3PM\"}",
        "imported_at": "2025-08-23 16:58:33.980573+00",
        "dup_key": "smith's farms pumpkin patch|bowersville|georgia",
        "quality_score": "75",
        "is_primary": "TRUE",
        "latitude": "34.368595",
        "longitude": "-83.0603438",
        "coord": "0101000020E61000000CE13DACDCC354C00C3CF71E2E2F4140",
        "has upick": "",
        "upick offerings": "",
        "upick source": ""
      },
      {
        "id": "1960",
        "name": "Imagine Farms",
        "site": "https://www.imaginefarms.com/",
        "phone": "844-204-0002",
        "full_address": "296 NE 60th St, Miami, FL 33137",
        "street": "296 NE 60th St",
        "city": "Miami",
        "postal_code": "33137",
        "state": "Florida",
        "reviews": "26",
        "working_hours": "",
        "imported_at": "2025-08-23 16:58:34.816308+00",
        "dup_key": "imagine farms|miami|florida",
        "quality_score": "96",
        "is_primary": "TRUE",
        "latitude": "25.8313712",
        "longitude": "-80.190107",
        "coord": "0101000020E610000067EF8CB62A0C54C016D632BED4D43940",
        "has upick": "",
        "upick offerings": "",
        "upick source": ""
      },
      {
        "id": "1928",
        "name": "Deauville Farm (Gail's Garden)",
        "site": "http://www.doevillethemovie.com/",
        "phone": "540-856-2130",
        "full_address": "7648 Crooked Run Rd, Edinburg, VA 22824",
        "street": "7648 Crooked Run Rd",
        "city": "Edinburg",
        "postal_code": "22824",
        "state": "Virginia",
        "reviews": "27",
        "working_hours": "{\"Monday\": \"Closed\", \"Tuesday\": \"Closed\", \"Wednesday\": \"Closed\", \"Thursday\": \"Closed\", \"Friday\": \"10AM-4PM\", \"Saturday\": \"10AM-4PM\", \"Sunday\": \"10AM-4PM\"}",
        "imported_at": "2025-08-23 16:58:34.816308+00",
        "dup_key": "deauville farm (gail's garden)|edinburg|virginia",
        "quality_score": "97",
        "is_primary": "TRUE",
        "latitude": "38.8413071",
        "longitude": "-78.7665262",
        "coord": "0101000020E6100000BD21E8C30EB153C0413278F3AF6B4340",
        "has upick": "",
        "upick offerings": "",
        "upick source": ""
      },
      {
        "id": "1755",
        "name": "Clement Blueberry Farm",
        "site": "https://www.clementblueberries.com/",
        "phone": "609-836-0099",
        "full_address": "200 Magnolia Rd, Pemberton, NJ 08068",
        "street": "200 Magnolia Rd",
        "city": "Pemberton",
        "postal_code": "8068",
        "state": "New Jersey",
        "reviews": "34",
        "working_hours": "",
        "imported_at": "2025-08-23 16:58:34.414722+00",
        "dup_key": "clement blueberry farm|pemberton|new jersey",
        "quality_score": "104",
        "is_primary": "TRUE",
        "latitude": "39.9528083",
        "longitude": "-74.6654586",
        "coord": "0101000020E6100000E2F5AADF96AA52C0BEED539FF5F94340",
        "has upick": "",
        "upick offerings": "",
        "upick source": ""
      },
      {
        "id": "1276",
        "name": "Burek Farms",
        "site": "https://burekfarms.com/",
        "phone": "219-369-6508",
        "full_address": "381 E 400 S, La Porte, IN 46350",
        "street": "381 E 400 S",
        "city": "La Porte",
        "postal_code": "46350",
        "state": "Indiana",
        "reviews": "63",
        "working_hours": "{\"Monday\": \"9AM-7PM\", \"Tuesday\": \"9AM-7PM\", \"Wednesday\": \"9AM-7PM\", \"Thursday\": \"9AM-7PM\", \"Friday\": \"9AM-7PM\", \"Saturday\": \"9AM-7PM\", \"Sunday\": \"9AM-7PM\"}",
        "imported_at": "2025-08-23 16:58:33.980573+00",
        "dup_key": "burek farms|la porte|indiana",
        "quality_score": "133",
        "is_primary": "TRUE",
        "latitude": "41.547073",
        "longitude": "-86.692506",
        "coord": "0101000020E61000002992AF0452AC55C026C3F17C06C64440",
        "has upick": "",
        "upick offerings": "",
        "upick source": ""
      }
    ],
    "count": 20,
    "status": "assigned",
    "assigned_at": "2025-09-07T04:30:45.560369"
  },
  "agent_3": {
    "farms": [
      {
        "id": "2181",
        "name": "Mountain Orchard",
        "site": "https://www.mountainorchard.com/",
        "phone": "413-357-8877",
        "full_address": "676 Main Rd, Granville, MA 01034",
        "street": "676 Main Rd",
        "city": "Granville",
        "postal_code": "1034",
        "state": "Massachusetts",
        "reviews": "20",
        "working_hours": "{\"Monday\": \"8AM-3PM\", \"Tuesday\": \"8AM-3PM\", \"Wednesday\": \"8AM-3PM\", \"Thursday\": \"8AM-3PM\", \"Friday\": \"8AM-3PM\", \"Saturday\": \"10AM-4PM\", \"Sunday\": \"10AM-4PM\"}",
        "imported_at": "2025-08-23 16:58:34.816308+00",
        "dup_key": "mountain orchard|granville|massachusetts",
        "quality_score": "90",
        "is_primary": "TRUE",
        "latitude": "42.0672243",
        "longitude": "-72.8779206",
        "coord": "0101000020E6100000055FE2D92F3852C08DFF4CCE9A084540",
        "has upick": "",
        "upick offerings": "",
        "upick source": ""
      },
      {
        "id": "2347",
        "name": "Knaus Berry Farm",
        "site": "http://www.knausberryfarm.com/",
        "phone": "305-389-1548",
        "full_address": "16790 SW 177th Ave, Homestead, FL 33031",
        "street": "",
        "city": "",
        "postal_code": "",
        "state": "",
        "reviews": "3755",
        "working_hours": "{}",
        "imported_at": "2025-08-26 05:49:18.345127+00",
        "dup_key": "knaus berry farm|+13053891548",
        "quality_score": "",
        "is_primary": "TRUE",
        "latitude": "25.550477",
        "longitude": "-80.478087",
        "coord": "0101000020E6100000236937FA981E54C04033880FEC8C3940",
        "has upick": "",
        "upick offerings": "",
        "upick source": ""
      },
      {
        "id": "1451",
        "name": "Currier Orchards, LLC",
        "site": "https://www.currierorchards.com/",
        "phone": "603-881-8864",
        "full_address": "9 Peaslee Rd, Merrimack, NH 03054",
        "street": "9 Peaslee Rd",
        "city": "Merrimack",
        "postal_code": "3054",
        "state": "New Hampshire",
        "reviews": "50",
        "working_hours": "",
        "imported_at": "2025-08-23 16:58:34.414722+00",
        "dup_key": "currier orchards, llc|merrimack|new hampshire",
        "quality_score": "120",
        "is_primary": "TRUE",
        "latitude": "42.822362",
        "longitude": "-71.536505",
        "coord": "0101000020E6100000FD48111956E251C090BC732843694540",
        "has upick": "",
        "upick offerings": "",
        "upick source": ""
      },
      {
        "id": "2005",
        "name": "Smith Ridge Farms",
        "site": "",
        "phone": "",
        "full_address": "7004 McLeansville Rd, Browns Summit, NC 27214",
        "street": "7004 McLeansville Rd",
        "city": "Browns Summit",
        "postal_code": "27214",
        "state": "North Carolina",
        "reviews": "25",
        "working_hours": "{\"Monday\": \"9AM-6PM\", \"Tuesday\": \"9AM-6PM\", \"Wednesday\": \"9AM-6PM\", \"Thursday\": \"9AM-6PM\", \"Friday\": \"9AM-6PM\", \"Saturday\": \"9AM-5PM\", \"Sunday\": \"Closed\"}",
        "imported_at": "2025-08-23 16:58:34.816308+00",
        "dup_key": "smith ridge farms|browns summit|north carolina",
        "quality_score": "25",
        "is_primary": "TRUE",
        "latitude": "36.1911804",
        "longitude": "-79.6783873",
        "coord": "0101000020E610000064E190B26AEB53C06FD16E9978184240",
        "has upick": "",
        "upick offerings": "",
        "upick source": ""
      },
      {
        "id": "1351",
        "name": "True Blue Farms",
        "site": "http://truebluefarms.com/",
        "phone": "269-434-6112",
        "full_address": "9548 Co Rd 215, Grand Junction, MI 49056",
        "street": "9548 Co Rd 215",
        "city": "Grand Junction",
        "postal_code": "49056",
        "state": "Michigan",
        "reviews": "58",
        "working_hours": "",
        "imported_at": "2025-08-23 16:58:33.980573+00",
        "dup_key": "true blue farms|grand junction|michigan",
        "quality_score": "128",
        "is_primary": "TRUE",
        "latitude": "42.3836944",
        "longitude": "-86.073233",
        "coord": "0101000020E61000003BFF76D9AF8455C045D4E9E51C314540",
        "has upick": "",
        "upick offerings": "",
        "upick source": ""
      },
      {
        "id": "2385",
        "name": "Orchard Pond",
        "site": "http://www.orchardpond.com/",
        "phone": "850-894-0154",
        "full_address": "400 Cedar Hill Rd, Tallahassee, FL 32312",
        "street": "",
        "city": "",
        "postal_code": "",
        "state": "",
        "reviews": "43",
        "working_hours": "{\"Friday\":[\"11\u202fAM\u20135\u202fPM\"],\"Monday\":[\"Closed\"],\"Saturday\":[\"9\u202fAM\u20134\u202fPM\"],\"Sunday\":[\"Closed\"],\"Thursday\":[\"11\u202fAM\u20135\u202fPM\"],\"Tuesday\":[\"Closed\"],\"Wednesday\":[\"11\u202fAM\u20135\u202fPM\"]}",
        "imported_at": "2025-08-26 05:49:18.345127+00",
        "dup_key": "orchard pond|+18508940154",
        "quality_score": "",
        "is_primary": "TRUE",
        "latitude": "30.580571",
        "longitude": "-84.27747",
        "coord": "0101000020E6100000C0E78711C21155C08A01124DA0943E40",
        "has upick": "",
        "upick offerings": "",
        "upick source": ""
      },
      {
        "id": "1815",
        "name": "Elwood Orchard",
        "site": "http://www.elwoodorchard.com/",
        "phone": "",
        "full_address": "58 Snake Hill Rd, North Scituate, RI 02857",
        "street": "58 Snake Hill Rd",
        "city": "North Scituate",
        "postal_code": "2857",
        "state": "Rhode Island",
        "reviews": "32",
        "working_hours": "{\"Monday\": \"Closed\", \"Tuesday\": \"Closed\", \"Wednesday\": \"Closed\", \"Thursday\": \"Closed\", \"Friday\": \"Closed\", \"Saturday\": \"9AM-5PM\", \"Sunday\": \"9AM-5PM\"}",
        "imported_at": "2025-08-23 16:58:34.816308+00",
        "dup_key": "elwood orchard|north scituate|rhode island",
        "quality_score": "82",
        "is_primary": "TRUE",
        "latitude": "41.8634062",
        "longitude": "-71.581205",
        "coord": "0101000020E610000063D1747632E551C0F214281884EE4440",
        "has upick": "",
        "upick offerings": "",
        "upick source": ""
      },
      {
        "id": "1967",
        "name": "Red Cedar Valley Farms",
        "site": "http://rcvf.com/",
        "phone": "715-235-9411",
        "full_address": "N4439 410th St, Menomonie, WI 54751",
        "street": "N4439 410th St",
        "city": "Menomonie",
        "postal_code": "54751",
        "state": "Wisconsin",
        "reviews": "26",
        "working_hours": "",
        "imported_at": "2025-08-23 16:58:34.816308+00",
        "dup_key": "red cedar valley farms|menomonie|wisconsin",
        "quality_score": "96",
        "is_primary": "TRUE",
        "latitude": "44.8412499",
        "longitude": "-91.9562735",
        "coord": "0101000020E61000000422C49533FD56C0B321A413AE6B4640",
        "has upick": "",
        "upick offerings": "",
        "upick source": ""
      },
      {
        "id": "2439",
        "name": "Sweetberries of Crawford Farms",
        "site": "https://m.facebook.com/sweetberriesofcrawfordfarms/",
        "phone": "904-545-5688",
        "full_address": "21175 NW 43rd Ave, Lawtey, FL 32058",
        "street": "",
        "city": "",
        "postal_code": "",
        "state": "",
        "reviews": "86",
        "working_hours": "{}",
        "imported_at": "2025-08-26 05:49:18.345127+00",
        "dup_key": "sweetberries of crawford farms|+19045455688",
        "quality_score": "",
        "is_primary": "TRUE",
        "latitude": "30.023413",
        "longitude": "-82.116898",
        "coord": "0101000020E6100000F1BDBF417B8754C01F4DF564FE053E40",
        "has upick": "",
        "upick offerings": "",
        "upick source": ""
      },
      {
        "id": "1599",
        "name": "By Faith Farm",
        "site": "https://www.byfaithfarm.com/",
        "phone": "615-519-3559",
        "full_address": "7721 Whites Creek Pike, Joelton, TN 37080",
        "street": "7721 Whites Creek Pike",
        "city": "Joelton",
        "postal_code": "37080",
        "state": "Tennessee",
        "reviews": "41",
        "working_hours": "",
        "imported_at": "2025-08-23 16:58:34.414722+00",
        "dup_key": "by faith farm|joelton|tennessee",
        "quality_score": "111",
        "is_primary": "TRUE",
        "latitude": "36.349412",
        "longitude": "-86.8776405",
        "coord": "0101000020E610000049490F432BB855C03C6A4C88B92C4240",
        "has upick": "",
        "upick offerings": "",
        "upick source": ""
      },
      {
        "id": "1332",
        "name": "Silver Queen Farm",
        "site": "http://silverqueenfarmny.com/",
        "phone": "607-227-4505",
        "full_address": "5286 Stillwell Rd, Trumansburg, NY 14886",
        "street": "5286 Stillwell Rd",
        "city": "Trumansburg",
        "postal_code": "14886",
        "state": "New York",
        "reviews": "59",
        "working_hours": "{\"Monday\": \"9AM-6PM\", \"Tuesday\": \"9AM-6PM\", \"Wednesday\": \"9AM-6PM\", \"Thursday\": \"9AM-6PM\", \"Friday\": \"9AM-6PM\", \"Saturday\": \"9AM-6PM\", \"Sunday\": \"9AM-6PM\"}",
        "imported_at": "2025-08-23 16:58:33.980573+00",
        "dup_key": "silver queen farm|trumansburg|new york",
        "quality_score": "129",
        "is_primary": "TRUE",
        "latitude": "42.490765",
        "longitude": "-76.729968",
        "coord": "0101000020E610000019C8B3CBB72E53C0BF823463D13E4540",
        "has upick": "",
        "upick offerings": "",
        "upick source": ""
      },
      {
        "id": "1282",
        "name": "Yancey Blueberry Silver Springs",
        "site": "https://yanceysblueberryfarm.com/",
        "phone": "352-812-5478",
        "full_address": "11821 SE 1st Street Rd, Silver Springs, FL 34488",
        "street": "11821 SE 1st Street Rd",
        "city": "Silver Springs",
        "postal_code": "34488",
        "state": "Florida",
        "reviews": "63",
        "working_hours": "{\"Monday\": \"8AM-4PM\", \"Tuesday\": \"8AM-4PM\", \"Wednesday\": \"8AM-4PM\", \"Thursday\": \"8AM-4PM\", \"Friday\": \"8AM-4PM\", \"Saturday\": \"8AM-4PM\", \"Sunday\": \"8AM-4PM\"}",
        "imported_at": "2025-08-23 16:58:33.980573+00",
        "dup_key": "yancey blueberry silver springs|silver springs|florida",
        "quality_score": "133",
        "is_primary": "TRUE",
        "latitude": "29.187304",
        "longitude": "-81.957548",
        "coord": "0101000020E61000006A166877487D54C0F568AA27F32F3D40",
        "has upick": "",
        "upick offerings": "",
        "upick source": ""
      },
      {
        "id": "1675",
        "name": "Best Berry Farm",
        "site": "https://www.facebook.com/Best-Berry-Farm-399166500142981/",
        "phone": "518-286-0607",
        "full_address": "1078 Best Rd, East Greenbush, NY 12061",
        "street": "1078 Best Rd",
        "city": "East Greenbush",
        "postal_code": "12061",
        "state": "New York",
        "reviews": "37",
        "working_hours": "",
        "imported_at": "2025-08-23 16:58:34.414722+00",
        "dup_key": "best berry farm|east greenbush|new york",
        "quality_score": "107",
        "is_primary": "TRUE",
        "latitude": "42.6217674",
        "longitude": "-73.6535993",
        "coord": "0101000020E6100000108C2892D46952C0075CFC12964F4540",
        "has upick": "",
        "upick offerings": "",
        "upick source": ""
      },
      {
        "id": "1807",
        "name": "WestSide Tilth Farm",
        "site": "http://westsidetilth.com/",
        "phone": "716-427-8401",
        "full_address": "246 Normal Ave, Buffalo, NY 14213",
        "street": "246 Normal Ave",
        "city": "Buffalo",
        "postal_code": "14213",
        "state": "New York",
        "reviews": "32",
        "working_hours": "",
        "imported_at": "2025-08-23 16:58:34.816308+00",
        "dup_key": "westside tilth farm|buffalo|new york",
        "quality_score": "102",
        "is_primary": "TRUE",
        "latitude": "42.906722",
        "longitude": "-78.889263",
        "coord": "0101000020E6100000BEA25BAFE9B853C026486C770F744540",
        "has upick": "",
        "upick offerings": "",
        "upick source": ""
      },
      {
        "id": "1353",
        "name": "Summerset Farm",
        "site": "https://www.summersetfarmsyv.com/",
        "phone": "805-245-0989",
        "full_address": "3450 Baseline Ave, Santa Ynez, CA 93460",
        "street": "3450 Baseline Ave",
        "city": "Santa Ynez",
        "postal_code": "93460",
        "state": "California",
        "reviews": "58",
        "working_hours": "{\"Sunday\": \"9AM-3:30PM\", \"Monday\": \"Closed\", \"Tuesday\": \"Closed\", \"Wednesday\": \"9AM-3:30PM\", \"Thursday\": \"9AM-3:30PM\", \"Friday\": \"9AM-3:30PM\", \"Saturday\": \"9AM-3:30PM\"}",
        "imported_at": "2025-08-23 16:58:33.980573+00",
        "dup_key": "summerset farm|santa ynez|california",
        "quality_score": "128",
        "is_primary": "TRUE",
        "latitude": "34.6344491",
        "longitude": "-120.0825771",
        "coord": "0101000020E610000081F975F148055EC002BDCBA035514140",
        "has upick": "",
        "upick offerings": "",
        "upick source": ""
      },
      {
        "id": "1398",
        "name": "Dickinson Farm Apple Barn",
        "site": "http://www.dickinsonsfarm.com/",
        "phone": "413-467-3794",
        "full_address": "134 South St, Granby, MA 01033",
        "street": "134 South St",
        "city": "Granby",
        "postal_code": "1033",
        "state": "Massachusetts",
        "reviews": "54",
        "working_hours": "{\"Monday\": \"Closed\", \"Tuesday\": \"Closed\", \"Wednesday\": \"Closed\", \"Thursday\": \"Closed\", \"Friday\": \"Closed\", \"Saturday\": \"8AM-5PM\", \"Sunday\": \"8AM-5PM\"}",
        "imported_at": "2025-08-23 16:58:33.980573+00",
        "dup_key": "dickinson farm apple barn|granby|massachusetts",
        "quality_score": "124",
        "is_primary": "TRUE",
        "latitude": "42.2252204",
        "longitude": "-72.5281173",
        "coord": "0101000020E6100000EAFC80ACCC2152C02E32A605D41C4540",
        "has upick": "",
        "upick offerings": "",
        "upick source": ""
      },
      {
        "id": "2169",
        "name": "Clayton Rawl Farms",
        "site": "https://www.rawlfarms.com/",
        "phone": "803-926-7295",
        "full_address": "214 Wholesale Ln, West Columbia, SC 29172",
        "street": "214 Wholesale Ln",
        "city": "West Columbia",
        "postal_code": "29172",
        "state": "South Carolina",
        "reviews": "20",
        "working_hours": "",
        "imported_at": "2025-08-23 16:58:34.816308+00",
        "dup_key": "clayton rawl farms|west columbia|south carolina",
        "quality_score": "90",
        "is_primary": "TRUE",
        "latitude": "33.9049682",
        "longitude": "-81.0564599",
        "coord": "0101000020E61000004402FC099D4354C0C2757BFFD5F34040",
        "has upick": "",
        "upick offerings": "",
        "upick source": ""
      },
      {
        "id": "1975",
        "name": "Valhalla Farms LLC",
        "site": "http://www.valhallafarms.net/",
        "phone": "574-223-6632",
        "full_address": "6254 W 200 N, Rochester, IN 46975",
        "street": "6254 W 200 N",
        "city": "Rochester",
        "postal_code": "46975",
        "state": "Indiana",
        "reviews": "26",
        "working_hours": "{\"Monday\": \"7AM-2PM\", \"Tuesday\": \"7AM-2PM\", \"Wednesday\": \"7AM-2PM\", \"Thursday\": \"7AM-2PM\", \"Friday\": \"7AM-2PM\", \"Saturday\": \"7AM-2PM\", \"Sunday\": \"Closed\"}",
        "imported_at": "2025-08-23 16:58:34.816308+00",
        "dup_key": "valhalla farms llc|rochester|indiana",
        "quality_score": "96",
        "is_primary": "TRUE",
        "latitude": "41.0863384",
        "longitude": "-86.3626905",
        "coord": "0101000020E610000079043752369755C0CA31FE220D8B4440",
        "has upick": "",
        "upick offerings": "",
        "upick source": ""
      },
      {
        "id": "1534",
        "name": "Hillcrest Farms & Greenhouse",
        "site": "https://www.hillcrestfarms.biz/",
        "phone": "973-239-0809",
        "full_address": "377 Bloomfield Ave, Verona, NJ 07044",
        "street": "377 Bloomfield Ave",
        "city": "Verona",
        "postal_code": "7044",
        "state": "New Jersey",
        "reviews": "45",
        "working_hours": "{\"Monday\": \"9AM-5PM\", \"Tuesday\": \"9AM-5PM\", \"Wednesday\": \"9AM-5PM\", \"Thursday\": \"9AM-5PM\", \"Friday\": \"9AM-5PM\", \"Saturday\": \"9AM-5PM\", \"Sunday\": \"9AM-3PM\"}",
        "imported_at": "2025-08-23 16:58:34.414722+00",
        "dup_key": "hillcrest farms & greenhouse|verona|new jersey",
        "quality_score": "115",
        "is_primary": "TRUE",
        "latitude": "40.8283061",
        "longitude": "-74.2405378",
        "coord": "0101000020E6100000EA1CA8F8648F52C0E7492DEF056A4440",
        "has upick": "",
        "upick offerings": "",
        "upick source": ""
      },
      {
        "id": "1986",
        "name": "A Different Chick Farm and Orchard",
        "site": "http://www.adifferentchickfarm.com/",
        "phone": "423-534-0353",
        "full_address": "1112 Antioch Rd, Johnson City, TN 37604",
        "street": "1112 Antioch Rd",
        "city": "Johnson City",
        "postal_code": "37604",
        "state": "Tennessee",
        "reviews": "25",
        "working_hours": "",
        "imported_at": "2025-08-23 16:58:34.816308+00",
        "dup_key": "a different chick farm and orchard|johnson city|tennessee",
        "quality_score": "95",
        "is_primary": "TRUE",
        "latitude": "36.294756",
        "longitude": "-82.393112",
        "coord": "0101000020E610000092EA3BBF289954C05F268A90BA254240",
        "has upick": "",
        "upick offerings": "",
        "upick source": ""
      }
    ],
    "count": 20,
    "status": "assigned",
    "assigned_at": "2025-09-07T04:30:45.560371"
  },
  "agent_4": {
    "farms": [
      {
        "id": "1952",
        "name": "Cedar Heights Orchards",
        "site": "http://www.rhinebeckapples.com/",
        "phone": "845-876-3231",
        "full_address": "8 Crosby Ln, Rhinebeck, NY 12572",
        "street": "8 Crosby Ln",
        "city": "Rhinebeck",
        "postal_code": "12572",
        "state": "New York",
        "reviews": "26",
        "working_hours": "{\"Monday\": \"9AM-5PM\", \"Tuesday\": \"9AM-5PM\", \"Wednesday\": \"9AM-5PM\", \"Thursday\": \"9AM-5PM\", \"Friday\": \"9AM-5PM\", \"Saturday\": \"9AM-5PM\", \"Sunday\": \"9AM-5PM\"}",
        "imported_at": "2025-08-23 16:58:34.816308+00",
        "dup_key": "cedar heights orchards|rhinebeck|new york",
        "quality_score": "96",
        "is_primary": "TRUE",
        "latitude": "41.9570466",
        "longitude": "-73.876115",
        "coord": "0101000020E61000003E22A644127852C0BEDFC38080FA4440",
        "has upick": "",
        "upick offerings": "",
        "upick source": ""
      },
      {
        "id": "1635",
        "name": "Thomas Farm",
        "site": "https://www.facebook.com/thomasfarmpa/",
        "phone": "570-788-2571",
        "full_address": "556 St Johns Rd, Drums, PA 18222",
        "street": "556 St Johns Rd",
        "city": "Drums",
        "postal_code": "18222",
        "state": "Pennsylvania",
        "reviews": "39",
        "working_hours": "{\"Monday\": \"9AM-5PM\", \"Tuesday\": \"9AM-4PM\", \"Wednesday\": \"9AM-4PM\", \"Thursday\": \"9AM-4PM\", \"Friday\": \"9AM-5PM\", \"Saturday\": \"9AM-5PM\", \"Sunday\": \"10AM-5PM\"}",
        "imported_at": "2025-08-23 16:58:34.414722+00",
        "dup_key": "thomas farm|drums|pennsylvania",
        "quality_score": "109",
        "is_primary": "TRUE",
        "latitude": "41.0278224",
        "longitude": "-76.0274379",
        "coord": "0101000020E6100000F0CAE48AC10153C0510C35AF8F834440",
        "has upick": "",
        "upick offerings": "",
        "upick source": ""
      },
      {
        "id": "1760",
        "name": "U-Pick Apple Orchard",
        "site": "",
        "phone": "",
        "full_address": "S., 12201 Oak Glen Rd, Oak Glen, CA 92399",
        "street": "S., 12201 Oak Glen Rd",
        "city": "Oak Glen",
        "postal_code": "92399",
        "state": "CA",
        "reviews": "34",
        "working_hours": "",
        "imported_at": "2025-08-23 16:58:34.414722+00",
        "dup_key": "u-pick apple orchard|oak glen|ca",
        "quality_score": "34",
        "is_primary": "TRUE",
        "latitude": "34.034162",
        "longitude": "-116.9403598",
        "coord": "0101000020E610000047DEDEDA2E3C5DC00962A06B5F044140",
        "has upick": "",
        "upick offerings": "",
        "upick source": ""
      },
      {
        "id": "1336",
        "name": "Strawberry Farm",
        "site": "",
        "phone": "",
        "full_address": "1626-1628 S Euclid St, Anaheim, CA 92802",
        "street": "1626-1628 S Euclid St",
        "city": "Anaheim",
        "postal_code": "92802",
        "state": "California",
        "reviews": "59",
        "working_hours": "",
        "imported_at": "2025-08-23 16:58:33.980573+00",
        "dup_key": "strawberry farm|anaheim|california",
        "quality_score": "59",
        "is_primary": "TRUE",
        "latitude": "33.807141",
        "longitude": "-117.9411483",
        "coord": "0101000020E6100000E74B14C63B7C5DC06021736550E74040",
        "has upick": "",
        "upick offerings": "",
        "upick source": ""
      },
      {
        "id": "1553",
        "name": "Maxwell's Farm",
        "site": "http://www.maxwellsfarm.com/",
        "phone": "207-799-3383",
        "full_address": "Two Lights Road, Bowery Beach Rd, Cape Elizabeth, ME 04107",
        "street": "Two Lights Road, Bowery Beach Rd",
        "city": "Cape Elizabeth",
        "postal_code": "4107",
        "state": "ME",
        "reviews": "44",
        "working_hours": "",
        "imported_at": "2025-08-23 16:58:34.414722+00",
        "dup_key": "maxwell's farm|cape elizabeth|me",
        "quality_score": "114",
        "is_primary": "TRUE",
        "latitude": "43.5665846",
        "longitude": "-70.2171868",
        "coord": "0101000020E6100000DDC77663E68D51C068B51BD885C84540",
        "has upick": "",
        "upick offerings": "",
        "upick source": ""
      },
      {
        "id": "2342",
        "name": "Keel Farms",
        "site": "http://www.keelfarms.com/",
        "phone": "813-752-9100",
        "full_address": "5202 Thonotosassa Rd, Plant City, FL 33565",
        "street": "",
        "city": "",
        "postal_code": "",
        "state": "",
        "reviews": "5825",
        "working_hours": "{\"Friday\":[\"11\u202fAM\u201310\u202fPM\"],\"Monday\":[\"11\u202fAM\u20139\u202fPM\"],\"Saturday\":[\"11\u202fAM\u201310\u202fPM\"],\"Sunday\":[\"11\u202fAM\u20137\u202fPM\"],\"Thursday\":[\"11\u202fAM\u20139\u202fPM\"],\"Tuesday\":[\"11\u202fAM\u20139\u202fPM\"],\"Wednesday\":[\"11\u202fAM\u20139\u202fPM\"]}",
        "imported_at": "2025-08-26 05:49:18.345127+00",
        "dup_key": "keel farms|+18137529100",
        "quality_score": "",
        "is_primary": "TRUE",
        "latitude": "28.047135",
        "longitude": "-82.187932",
        "coord": "0101000020E6100000CD77F013078C54C0397F130A110C3C40",
        "has upick": "",
        "upick offerings": "",
        "upick source": ""
      },
      {
        "id": "1535",
        "name": "Shockley Farms",
        "site": "",
        "phone": "757-607-7180",
        "full_address": "23184 Seaside Rd, Cape Charles, VA 23310",
        "street": "23184 Seaside Rd",
        "city": "Cape Charles",
        "postal_code": "23310",
        "state": "Virginia",
        "reviews": "45",
        "working_hours": "{\"Monday\": \"10AM-5PM\", \"Tuesday\": \"10AM-5PM\", \"Wednesday\": \"10AM-5PM\", \"Thursday\": \"10AM-5PM\", \"Friday\": \"10AM-5PM\", \"Saturday\": \"10AM-5PM\", \"Sunday\": \"12-5PM\"}",
        "imported_at": "2025-08-23 16:58:34.414722+00",
        "dup_key": "shockley farms|cape charles|virginia",
        "quality_score": "65",
        "is_primary": "TRUE",
        "latitude": "37.262275",
        "longitude": "-75.9460776",
        "coord": "0101000020E61000009ADE0F898CFC52C07AC7293A92A14240",
        "has upick": "",
        "upick offerings": "",
        "upick source": ""
      },
      {
        "id": "2187",
        "name": "Hoskins U-Pick Blueberry Farm",
        "site": "",
        "phone": "309-867-3135",
        "full_address": "2366 County Hwy 3, Oquawka, IL 61469",
        "street": "2366 County Hwy 3",
        "city": "Oquawka",
        "postal_code": "61469",
        "state": "Illinois",
        "reviews": "20",
        "working_hours": "{\"Monday\": \"Closed\", \"Tuesday\": \"Closed\", \"Wednesday\": \"Closed\", \"Thursday\": \"Closed\", \"Friday\": \"Closed\", \"Saturday\": \"7AM-12PM\", \"Sunday\": \"Closed\"}",
        "imported_at": "2025-08-23 16:58:34.816308+00",
        "dup_key": "hoskins u-pick blueberry farm|oquawka|illinois",
        "quality_score": "40",
        "is_primary": "TRUE",
        "latitude": "40.9788078",
        "longitude": "-90.9294493",
        "coord": "0101000020E610000091B2EA187CBB56C0EC08F192497D4440",
        "has upick": "",
        "upick offerings": "",
        "upick source": ""
      },
      {
        "id": "2008",
        "name": "North River Farms",
        "site": "http://www.northriverfarms.co/",
        "phone": "828-890-5316",
        "full_address": "3333 N Mills River Rd, Mills River, NC 28759",
        "street": "3333 N Mills River Rd",
        "city": "Mills River",
        "postal_code": "28759",
        "state": "North Carolina",
        "reviews": "24",
        "working_hours": "{\"Monday\": \"8AM-5PM\", \"Tuesday\": \"8AM-5PM\", \"Wednesday\": \"8AM-5PM\", \"Thursday\": \"8AM-5PM\", \"Friday\": \"8AM-5PM\", \"Saturday\": \"8AM-12PM\", \"Sunday\": \"Closed\"}",
        "imported_at": "2025-08-23 16:58:34.816308+00",
        "dup_key": "north river farms|mills river|north carolina",
        "quality_score": "94",
        "is_primary": "TRUE",
        "latitude": "35.395451",
        "longitude": "-82.6221062",
        "coord": "0101000020E6100000E2E88596D0A754C0D3156C239EB24140",
        "has upick": "",
        "upick offerings": "",
        "upick source": ""
      },
      {
        "id": "1767",
        "name": "Valley Dream Farm",
        "site": "https://www.valleydreamfarm.com/",
        "phone": "802-644-6598",
        "full_address": "5901 Pleasant Valley Rd, Cambridge, VT 05444",
        "street": "5901 Pleasant Valley Rd",
        "city": "Cambridge",
        "postal_code": "5444",
        "state": "Vermont",
        "reviews": "34",
        "working_hours": "{\"Monday\": \"Closed\", \"Tuesday\": \"Closed\", \"Wednesday\": \"12-6PM\", \"Thursday\": \"12-6PM\", \"Friday\": \"12-6PM\", \"Saturday\": \"12-6PM\", \"Sunday\": \"12-6PM\"}",
        "imported_at": "2025-08-23 16:58:34.414722+00",
        "dup_key": "valley dream farm|cambridge|vermont",
        "quality_score": "104",
        "is_primary": "TRUE",
        "latitude": "44.5886077",
        "longitude": "-72.8637225",
        "coord": "0101000020E61000007094BC3A473752C03ED6427F574B4640",
        "has upick": "",
        "upick offerings": "",
        "upick source": ""
      },
      {
        "id": "2396",
        "name": "Peaches on Laws Road",
        "site": "http://www.peachesonlawsroad.com/",
        "phone": "407-376-0722",
        "full_address": "9320 Laws Rd, Clermont, FL 34714",
        "street": "",
        "city": "",
        "postal_code": "",
        "state": "",
        "reviews": "10",
        "working_hours": "{}",
        "imported_at": "2025-08-26 05:49:18.345127+00",
        "dup_key": "peaches on laws road|+14073760722",
        "quality_score": "",
        "is_primary": "TRUE",
        "latitude": "28.450604",
        "longitude": "-81.80053",
        "coord": "0101000020E6100000E15D2EE23B7354C06072A3C85A733C40",
        "has upick": "",
        "upick offerings": "",
        "upick source": ""
      },
      {
        "id": "1657",
        "name": "\ud83c\udf33 Canaan Apple Orchard \ud83c\udf4e Closed for season. See you in 2025! \ud83d\udd4a\ufe0f",
        "site": "",
        "phone": "269-964-1575",
        "full_address": "14810 Roof Dr, Climax, MI 49034",
        "street": "14810 Roof Dr",
        "city": "Climax",
        "postal_code": "49034",
        "state": "Michigan",
        "reviews": "38",
        "working_hours": "",
        "imported_at": "2025-08-23 16:58:34.414722+00",
        "dup_key": "\ud83c\udf33 canaan apple orchard \ud83c\udf4e closed for season. see you in 2025! \ud83d\udd4a\ufe0f|climax|michigan",
        "quality_score": "58",
        "is_primary": "TRUE",
        "latitude": "42.2655477",
        "longitude": "-85.3404691",
        "coord": "0101000020E61000001B73E83ECA5555C096838F77FD214540",
        "has upick": "",
        "upick offerings": "",
        "upick source": ""
      },
      {
        "id": "1881",
        "name": "Miller's Hill Farm",
        "site": "https://www.millershillfarm.com/",
        "phone": "973-543-1106",
        "full_address": "10 Combs Ave, Mendham Township, NJ 07945",
        "street": "10 Combs Ave",
        "city": "Mendham Township",
        "postal_code": "7945",
        "state": "New Jersey",
        "reviews": "29",
        "working_hours": "{\"Monday\": \"Closed\", \"Tuesday\": \"Closed\", \"Wednesday\": \"Closed\", \"Thursday\": \"Closed\", \"Friday\": \"10AM-4:30PM\", \"Saturday\": \"10AM-4:30PM\", \"Sunday\": \"10AM-4:30PM\"}",
        "imported_at": "2025-08-23 16:58:34.816308+00",
        "dup_key": "miller's hill farm|mendham township|new jersey",
        "quality_score": "99",
        "is_primary": "TRUE",
        "latitude": "40.814471",
        "longitude": "-74.615278",
        "coord": "0101000020E6100000B1FCF9B660A752C02C45F29540684440",
        "has upick": "",
        "upick offerings": "",
        "upick source": ""
      },
      {
        "id": "1304",
        "name": "Swope\u2019s Farm",
        "site": "http://brownsorchardandcider.com/",
        "phone": "724-356-7960",
        "full_address": "267 Southview Rd, McDonald, PA 15057",
        "street": "267 Southview Rd",
        "city": "McDonald",
        "postal_code": "15057",
        "state": "Pennsylvania",
        "reviews": "61",
        "working_hours": "{\"Monday\": \"Closed\", \"Tuesday\": \"10AM-5PM\", \"Wednesday\": \"10AM-5PM\", \"Thursday\": \"10AM-5PM\", \"Friday\": \"10AM-5PM\", \"Saturday\": \"10AM-5PM\", \"Sunday\": \"10AM-5PM\"}",
        "imported_at": "2025-08-23 16:58:33.980573+00",
        "dup_key": "swope\u2019s farm|mcdonald|pennsylvania",
        "quality_score": "131",
        "is_primary": "TRUE",
        "latitude": "40.3173944",
        "longitude": "-80.2722821",
        "coord": "0101000020E610000051B2E6116D1154C07EF73361A0284440",
        "has upick": "",
        "upick offerings": "",
        "upick source": ""
      },
      {
        "id": "1678",
        "name": "U-Pick Strawberries - Starvish Farm",
        "site": "https://upickstrawberries.wordpress.com/",
        "phone": "",
        "full_address": "36 N Water St, East Windsor, CT 06088",
        "street": "36 N Water St",
        "city": "East Windsor",
        "postal_code": "6088",
        "state": "Connecticut",
        "reviews": "37",
        "working_hours": "{\"Monday\": \"8AM-5PM\", \"Tuesday\": \"8AM-5PM\", \"Wednesday\": \"8AM-5PM\", \"Thursday\": \"8AM-5PM\", \"Friday\": \"8AM-5PM\", \"Saturday\": \"8AM-5PM\", \"Sunday\": \"8AM-5PM\"}",
        "imported_at": "2025-08-23 16:58:34.414722+00",
        "dup_key": "u-pick strawberries - starvish farm|east windsor|connecticut",
        "quality_score": "87",
        "is_primary": "TRUE",
        "latitude": "41.9347237",
        "longitude": "-72.6194551",
        "coord": "0101000020E6100000C9F50027A52752C0E725B506A5F74440",
        "has upick": "",
        "upick offerings": "",
        "upick source": ""
      },
      {
        "id": "1861",
        "name": "Yumm Strawberry Farm",
        "site": "https://www.instagram.com/yumm_strawberryy?igsh=MzRlODBiNWFlZA==",
        "phone": "916-897-6986",
        "full_address": "9957 Grant Line Rd, Elk Grove, CA 95624",
        "street": "9957 Grant Line Rd",
        "city": "Elk Grove",
        "postal_code": "95624",
        "state": "California",
        "reviews": "30",
        "working_hours": "{\"Sunday\": \"9AM-6PM\", \"Monday\": \"Closed\", \"Tuesday\": \"9AM-6PM\", \"Wednesday\": \"9AM-6PM\", \"Thursday\": \"9AM-6PM\", \"Friday\": \"9AM-6PM\", \"Saturday\": \"9AM-6PM\"}",
        "imported_at": "2025-08-23 16:58:34.816308+00",
        "dup_key": "yumm strawberry farm|elk grove|california",
        "quality_score": "100",
        "is_primary": "TRUE",
        "latitude": "38.394331",
        "longitude": "-121.3398557",
        "coord": "0101000020E6100000FD361F32C0555EC045662E7079324340",
        "has upick": "",
        "upick offerings": "",
        "upick source": ""
      },
      {
        "id": "2057",
        "name": "Cross Island Farms",
        "site": "http://www.crossislandfarms.com/",
        "phone": "315-482-3663",
        "full_address": "44301 Cross Island Rd, Wellesley Island, NY 13640",
        "street": "44301 Cross Island Rd",
        "city": "Wellesley Island",
        "postal_code": "13640",
        "state": "New York",
        "reviews": "23",
        "working_hours": "{\"Monday\": \"7AM-9:30PM\", \"Tuesday\": \"7AM-9:30PM\", \"Wednesday\": \"7AM-9:30PM\", \"Thursday\": \"7AM-9:30PM\", \"Friday\": \"7AM-9:30PM\", \"Saturday\": \"7AM-9:30PM\", \"Sunday\": \"7AM-9:30PM\"}",
        "imported_at": "2025-08-23 16:58:34.816308+00",
        "dup_key": "cross island farms|wellesley island|new york",
        "quality_score": "93",
        "is_primary": "TRUE",
        "latitude": "44.3088534",
        "longitude": "-76.0068003",
        "coord": "0101000020E61000009786866A6F0053C013211A8288274640",
        "has upick": "",
        "upick offerings": "",
        "upick source": ""
      },
      {
        "id": "1762",
        "name": "The Barden Farm",
        "site": "http://www.bardenfarm.com/",
        "phone": "860-379-8803",
        "full_address": "45 Burgoyne Heights Rd, New Hartford, CT 06057",
        "street": "45 Burgoyne Heights Rd",
        "city": "New Hartford",
        "postal_code": "6057",
        "state": "Connecticut",
        "reviews": "34",
        "working_hours": "",
        "imported_at": "2025-08-23 16:58:34.414722+00",
        "dup_key": "the barden farm|new hartford|connecticut",
        "quality_score": "104",
        "is_primary": "TRUE",
        "latitude": "41.8802449",
        "longitude": "-72.9986643",
        "coord": "0101000020E6100000B20BAB1DEA3F52C043FC68DDABF04440",
        "has upick": "",
        "upick offerings": "",
        "upick source": ""
      },
      {
        "id": "1325",
        "name": "Great Joy Family Farm",
        "site": "https://www.greatjoyfamilyfarm.com/",
        "phone": "845-843-9755",
        "full_address": "386 NY-302, Pine Bush, NY 12566",
        "street": "386 NY-302",
        "city": "Pine Bush",
        "postal_code": "12566",
        "state": "New York",
        "reviews": "60",
        "working_hours": "{\"Monday\": \"10AM-5PM\", \"Tuesday\": \"10AM-5PM\", \"Wednesday\": \"10AM-5PM\", \"Thursday\": \"10AM-5PM\", \"Friday\": \"10AM-5PM\", \"Saturday\": \"10AM-5PM\", \"Sunday\": \"10AM-5PM\"}",
        "imported_at": "2025-08-23 16:58:33.980573+00",
        "dup_key": "great joy family farm|pine bush|new york",
        "quality_score": "130",
        "is_primary": "TRUE",
        "latitude": "41.590608",
        "longitude": "-74.3144236",
        "coord": "0101000020E6100000CCC529841F9452C0C460FE0A99CB4440",
        "has upick": "",
        "upick offerings": "",
        "upick source": ""
      },
      {
        "id": "1638",
        "name": "Beech Road Blueberry Farm",
        "site": "http://beechroadblueberryfarm.com/",
        "phone": "574-633-4583",
        "full_address": "67041 Beech Rd, Wakarusa, IN 46573",
        "street": "67041 Beech Rd",
        "city": "Wakarusa",
        "postal_code": "46573",
        "state": "Indiana",
        "reviews": "39",
        "working_hours": "",
        "imported_at": "2025-08-23 16:58:34.414722+00",
        "dup_key": "beech road blueberry farm|wakarusa|indiana",
        "quality_score": "109",
        "is_primary": "TRUE",
        "latitude": "41.5202494",
        "longitude": "-86.0816468",
        "coord": "0101000020E6100000ADF47FB3398555C0BE61478897C24440",
        "has upick": "",
        "upick offerings": "",
        "upick source": ""
      }
    ],
    "count": 20,
    "status": "assigned",
    "assigned_at": "2025-09-07T04:30:45.560373"
  },
  "agent_5": {
    "farms": [
      {
        "id": "2418",
        "name": "Seasons Farm Fresh",
        "site": "http://seasonsfarmfresh.com/",
        "phone": "305-608-9020",
        "full_address": "3191 Grand Ave #1641, Miami, FL 33133",
        "street": "",
        "city": "",
        "postal_code": "",
        "state": "",
        "reviews": "5",
        "working_hours": "{}",
        "imported_at": "2025-08-26 05:49:18.345127+00",
        "dup_key": "seasons farm fresh|+13056089020",
        "quality_score": "",
        "is_primary": "TRUE",
        "latitude": "25.728246",
        "longitude": "-80.245167",
        "coord": "0101000020E6100000BDC3EDD0B00F54C05C7171546EBA3940",
        "has upick": "",
        "upick offerings": "",
        "upick source": ""
      },
      {
        "id": "1859",
        "name": "Ruby Hill Farm",
        "site": "http://www.rubyhillfarm.com/",
        "phone": "917-733-9363",
        "full_address": "2325 Salt Point Turnpike, Clinton Corners, NY 12514",
        "street": "2325 Salt Point Turnpike",
        "city": "Clinton Corners",
        "postal_code": "12514",
        "state": "New York",
        "reviews": "30",
        "working_hours": "{\"Monday\": \"2-6:30PM\", \"Tuesday\": \"2-6:30PM\", \"Wednesday\": \"2-6:30PM\", \"Thursday\": \"11AM-6:30PM\", \"Friday\": \"1-6:30PM\", \"Saturday\": \"10AM-4:30PM\", \"Sunday\": \"12-5PM\"}",
        "imported_at": "2025-08-23 16:58:34.816308+00",
        "dup_key": "ruby hill farm|clinton corners|new york",
        "quality_score": "100",
        "is_primary": "TRUE",
        "latitude": "41.8271083",
        "longitude": "-73.7689519",
        "coord": "0101000020E61000009CAC0782367152C005604DAFDEE94440",
        "has upick": "",
        "upick offerings": "",
        "upick source": ""
      },
      {
        "id": "1642",
        "name": "Blue Moon Berry Farm",
        "site": "https://www.facebook.com/bluemoonberryfarm/",
        "phone": "603-456-3144",
        "full_address": "195 Waldron Hill Rd, Warner, NH 03278",
        "street": "195 Waldron Hill Rd",
        "city": "Warner",
        "postal_code": "3278",
        "state": "New Hampshire",
        "reviews": "39",
        "working_hours": "{\"Monday\": \"Closed\", \"Tuesday\": \"8AM-6PM\", \"Wednesday\": \"8AM-6PM\", \"Thursday\": \"8AM-6PM\", \"Friday\": \"8AM-6PM\", \"Saturday\": \"8AM-6PM\", \"Sunday\": \"8AM-4PM\"}",
        "imported_at": "2025-08-23 16:58:34.414722+00",
        "dup_key": "blue moon berry farm|warner|new hampshire",
        "quality_score": "109",
        "is_primary": "TRUE",
        "latitude": "43.2633052",
        "longitude": "-71.8221543",
        "coord": "0101000020E610000002B1112D9EF451C0F16E1BFCB3A14540",
        "has upick": "",
        "upick offerings": "",
        "upick source": ""
      },
      {
        "id": "2267",
        "name": "Down To Earth Farm",
        "site": "https://www.farmersmarketjacksonvillefl.com/down-to-earth-farm/",
        "phone": "",
        "full_address": "9355 Old Plank Rd, Jacksonville, FL 32220",
        "street": "",
        "city": "",
        "postal_code": "",
        "state": "",
        "reviews": "15",
        "working_hours": "{\"Friday\":[\"Closed\"],\"Monday\":[\"Closed\"],\"Saturday\":[\"10\u202fAM\u20133\u202fAM\"],\"Sunday\":[\"Closed\"],\"Thursday\":[\"Closed\"],\"Tuesday\":[\"Closed\"],\"Wednesday\":[\"Closed\"]}",
        "imported_at": "2025-08-26 05:49:18.345127+00",
        "dup_key": "down to earth farm|",
        "quality_score": "",
        "is_primary": "TRUE",
        "latitude": "30.332472",
        "longitude": "-81.812099",
        "coord": "0101000020E61000005187156EF97354C0F1D58EE21C553E40",
        "has upick": "",
        "upick offerings": "",
        "upick source": ""
      },
      {
        "id": "2045",
        "name": "Sonrose Farm",
        "site": "",
        "phone": "609-795-0345",
        "full_address": "30 N Branch Rd, Browns Mills, NJ 08015",
        "street": "30 N Branch Rd",
        "city": "Browns Mills",
        "postal_code": "8015",
        "state": "New Jersey",
        "reviews": "23",
        "working_hours": "",
        "imported_at": "2025-08-23 16:58:34.816308+00",
        "dup_key": "sonrose farm|browns mills|new jersey",
        "quality_score": "43",
        "is_primary": "TRUE",
        "latitude": "39.9330585",
        "longitude": "-74.5252439",
        "coord": "0101000020E61000001A3B97989DA152C09E60FF756EF74340",
        "has upick": "",
        "upick offerings": "",
        "upick source": ""
      },
      {
        "id": "2180",
        "name": "Yellow Stonehouse Farm",
        "site": "http://www.yellowstonehousefarmcsa.com/",
        "phone": "413-562-2164",
        "full_address": "354 Root Rd, Westfield, MA 01085",
        "street": "354 Root Rd",
        "city": "Westfield",
        "postal_code": "1085",
        "state": "Massachusetts",
        "reviews": "20",
        "working_hours": "{\"Monday\": \"Closed\", \"Tuesday\": \"Closed\", \"Wednesday\": \"10AM-6PM\", \"Thursday\": \"10AM-6PM\", \"Friday\": \"10AM-6PM\", \"Saturday\": \"9AM-4PM\", \"Sunday\": \"Closed\"}",
        "imported_at": "2025-08-23 16:58:34.816308+00",
        "dup_key": "yellow stonehouse farm|westfield|massachusetts",
        "quality_score": "90",
        "is_primary": "TRUE",
        "latitude": "42.187326",
        "longitude": "-72.7493499",
        "coord": "0101000020E6100000B3704859F52F52C062D8614CFA174540",
        "has upick": "",
        "upick offerings": "",
        "upick source": ""
      },
      {
        "id": "1489",
        "name": "Godfrey's Farm",
        "site": "http://www.godfreysfarm.com/",
        "phone": "410-438-3509",
        "full_address": "302 Leager Rd, Sudlersville, MD 21668",
        "street": "302 Leager Rd",
        "city": "Sudlersville",
        "postal_code": "21668",
        "state": "Maryland",
        "reviews": "48",
        "working_hours": "{\"Monday\": \"8AM-6PM\", \"Tuesday\": \"8AM-6PM\", \"Wednesday\": \"8AM-6PM\", \"Thursday\": \"8AM-6PM\", \"Friday\": \"8AM-6PM\", \"Saturday\": \"8AM-5PM\", \"Sunday\": \"8AM-5PM\"}",
        "imported_at": "2025-08-23 16:58:34.414722+00",
        "dup_key": "godfrey's farm|sudlersville|maryland",
        "quality_score": "118",
        "is_primary": "TRUE",
        "latitude": "39.1832388",
        "longitude": "-75.8368964",
        "coord": "0101000020E6100000F808EBB58FF552C0DCAD765E74974340",
        "has upick": "",
        "upick offerings": "",
        "upick source": ""
      },
      {
        "id": "1756",
        "name": "Leidig's Farms",
        "site": "",
        "phone": "814-632-6986",
        "full_address": "2546 Ridge Rd, Tyrone, PA 16686",
        "street": "2546 Ridge Rd",
        "city": "Tyrone",
        "postal_code": "16686",
        "state": "Pennsylvania",
        "reviews": "34",
        "working_hours": "{\"Monday\": \"9AM-7PM\", \"Tuesday\": \"9AM-7PM\", \"Wednesday\": \"9AM-7PM\", \"Thursday\": \"9AM-7PM\", \"Friday\": \"9AM-7PM\", \"Saturday\": \"9AM-7PM\", \"Sunday\": \"9AM-7PM\"}",
        "imported_at": "2025-08-23 16:58:34.414722+00",
        "dup_key": "leidig's farms|tyrone|pennsylvania",
        "quality_score": "54",
        "is_primary": "TRUE",
        "latitude": "40.6910808",
        "longitude": "-78.1904684",
        "coord": "0101000020E6100000F93A5FA2308C53C05F72ED5575584440",
        "has upick": "",
        "upick offerings": "",
        "upick source": ""
      },
      {
        "id": "1716",
        "name": "Backer Farm Pastured Meats, Eggs, and Hay",
        "site": "http://www.backerfarm.com/",
        "phone": "908-619-0088",
        "full_address": "32 Ironia Rd, Mendham Township, NJ 07945",
        "street": "32 Ironia Rd",
        "city": "Mendham Township",
        "postal_code": "7945",
        "state": "New Jersey",
        "reviews": "36",
        "working_hours": "",
        "imported_at": "2025-08-23 16:58:34.414722+00",
        "dup_key": "backer farm pastured meats, eggs, and hay|mendham township|new jersey",
        "quality_score": "106",
        "is_primary": "TRUE",
        "latitude": "40.7797724",
        "longitude": "-74.6248138",
        "coord": "0101000020E6100000BA4505F3FCA752C06629FE94CF634440",
        "has upick": "",
        "upick offerings": "",
        "upick source": ""
      },
      {
        "id": "2352",
        "name": "Lake Mills U-Pick",
        "site": "https://www.facebook.com/lakemillsUpick",
        "phone": "",
        "full_address": "1701 Lake Mills Rd, Chuluota, FL 32766",
        "street": "",
        "city": "",
        "postal_code": "",
        "state": "",
        "reviews": "15",
        "working_hours": "{}",
        "imported_at": "2025-08-26 05:49:18.345127+00",
        "dup_key": "lake mills u-pick|",
        "quality_score": "",
        "is_primary": "TRUE",
        "latitude": "28.642786",
        "longitude": "-81.100277",
        "coord": "0101000020E6100000A0E238F06A4654C0A053909F8DA43C40",
        "has upick": "",
        "upick offerings": "",
        "upick source": ""
      },
      {
        "id": "1751",
        "name": "Indyks Farm",
        "site": "",
        "phone": "732-763-0919",
        "full_address": "595 Spotswood Englishtown Rd, Monroe Township, NJ 08831",
        "street": "595 Spotswood Englishtown Rd",
        "city": "Monroe Township",
        "postal_code": "8831",
        "state": "New Jersey",
        "reviews": "34",
        "working_hours": "{\"Monday\": \"9AM-7PM\", \"Tuesday\": \"9AM-7PM\", \"Wednesday\": \"9AM-7PM\", \"Thursday\": \"9AM-7PM\", \"Friday\": \"9AM-7PM\", \"Saturday\": \"9AM-5PM\", \"Sunday\": \"9AM-5PM\"}",
        "imported_at": "2025-08-23 16:58:34.414722+00",
        "dup_key": "indyks farm|monroe township|new jersey",
        "quality_score": "54",
        "is_primary": "TRUE",
        "latitude": "40.3368375",
        "longitude": "-74.3765616",
        "coord": "0101000020E61000007C3BD395199852C08048BF7D1D2B4440",
        "has upick": "",
        "upick offerings": "",
        "upick source": ""
      },
      {
        "id": "2455",
        "name": "Three Sons Farm & Produce Pick your own F, S,S",
        "site": "https://www.facebook.com/ThreeSonFarms",
        "phone": "",
        "full_address": "3906 McIntosh Rd, Dover, FL 33527",
        "street": "",
        "city": "",
        "postal_code": "",
        "state": "",
        "reviews": "19",
        "working_hours": "{\"Friday\":[\"10\u202fAM\u20135\u202fPM\"],\"Monday\":[\"10:30\u202fAM\u20135\u202fPM\"],\"Saturday\":[\"9\u202fAM\u20135\u202fPM\"],\"Sunday\":[\"1\u20135\u202fPM\"],\"Thursday\":[\"10\u202fAM\u20135\u202fPM\"],\"Tuesday\":[\"10:30\u202fAM\u20135\u202fPM\"],\"Wednesday\":[\"10\u202fAM\u20135\u202fPM\"]}",
        "imported_at": "2025-08-26 05:49:18.345127+00",
        "dup_key": "three sons farm & produce pick your own f, s,s|",
        "quality_score": "",
        "is_primary": "TRUE",
        "latitude": "28.00648",
        "longitude": "-82.24455",
        "coord": "0101000020E6100000280F0BB5A68F54C0FD135CACA8013C40",
        "has upick": "",
        "upick offerings": "",
        "upick source": ""
      },
      {
        "id": "2118",
        "name": "Thistle Moon Farmstead (FKA: Wilton Blueberry Farm)",
        "site": "https://thistlemoonfarmstead.com/",
        "phone": "207-645-4678",
        "full_address": "83 Mclaughlin Rd, Wilton, ME 04294",
        "street": "83 Mclaughlin Rd",
        "city": "Wilton",
        "postal_code": "4294",
        "state": "Maine",
        "reviews": "21",
        "working_hours": "{\"Monday\": \"Closed\", \"Tuesday\": \"8AM-6PM\", \"Wednesday\": \"Closed\", \"Thursday\": \"8AM-6PM\", \"Friday\": \"Closed\", \"Saturday\": \"8AM-6PM\", \"Sunday\": \"8AM-6PM\"}",
        "imported_at": "2025-08-23 16:58:34.816308+00",
        "dup_key": "thistle moon farmstead (fka: wilton blueberry farm)|wilton|maine",
        "quality_score": "91",
        "is_primary": "TRUE",
        "latitude": "44.612773",
        "longitude": "-70.208387",
        "coord": "0101000020E6100000577A6D36568D51C0976F7D586F4E4640",
        "has upick": "",
        "upick offerings": "",
        "upick source": ""
      },
      {
        "id": "2453",
        "name": "The Strawberry Farm",
        "site": "http://www.facebook.com/thestrawberryfarms",
        "phone": "850-957-8500",
        "full_address": "8687 Evers Rd, Milton, FL 32570",
        "street": "",
        "city": "",
        "postal_code": "",
        "state": "",
        "reviews": "92",
        "working_hours": "{}",
        "imported_at": "2025-08-26 05:49:18.345127+00",
        "dup_key": "the strawberry farm|+18509578500",
        "quality_score": "",
        "is_primary": "TRUE",
        "latitude": "30.777638",
        "longitude": "-86.954769",
        "coord": "0101000020E6100000048F6FEF1ABD55C07920B24813C73E40",
        "has upick": "",
        "upick offerings": "",
        "upick source": ""
      },
      {
        "id": "2053",
        "name": "Hillview Blueberry Farm",
        "site": "https://hillviewblueberryfarm.com/",
        "phone": "607-522-7055",
        "full_address": "7091 Bean Station Rd, Prattsburgh, NY 14873",
        "street": "7091 Bean Station Rd",
        "city": "Prattsburgh",
        "postal_code": "14873",
        "state": "New York",
        "reviews": "23",
        "working_hours": "",
        "imported_at": "2025-08-23 16:58:34.816308+00",
        "dup_key": "hillview blueberry farm|prattsburgh|new york",
        "quality_score": "93",
        "is_primary": "TRUE",
        "latitude": "42.489597",
        "longitude": "-77.2809879",
        "coord": "0101000020E61000009744ACB4FB5153C0209C4F1DAB3E4540",
        "has upick": "",
        "upick offerings": "",
        "upick source": ""
      },
      {
        "id": "1969",
        "name": "Oak Ridge Farms",
        "site": "",
        "phone": "920-420-1854",
        "full_address": "125 County Rd CB, Neenah, WI 54956",
        "street": "125 County Rd CB",
        "city": "Neenah",
        "postal_code": "54956",
        "state": "Wisconsin",
        "reviews": "26",
        "working_hours": "",
        "imported_at": "2025-08-23 16:58:34.816308+00",
        "dup_key": "oak ridge farms|neenah|wisconsin",
        "quality_score": "46",
        "is_primary": "TRUE",
        "latitude": "44.179878",
        "longitude": "-88.5025",
        "coord": "0101000020E61000005C8FC2F5282056C08CA2073E06174640",
        "has upick": "",
        "upick offerings": "",
        "upick source": ""
      },
      {
        "id": "1480",
        "name": "Generation Pines Farm",
        "site": "",
        "phone": "",
        "full_address": "102 Kozloski Rd, Freehold, NJ 07728",
        "street": "102 Kozloski Rd",
        "city": "Freehold",
        "postal_code": "7728",
        "state": "New Jersey",
        "reviews": "48",
        "working_hours": "{\"Monday\": \"8AM-6PM\", \"Tuesday\": \"8AM-6PM\", \"Wednesday\": \"8AM-6PM\", \"Thursday\": \"8AM-6PM\", \"Friday\": \"8AM-6PM\", \"Saturday\": \"8AM-6PM\", \"Sunday\": \"8AM-5PM\"}",
        "imported_at": "2025-08-23 16:58:34.414722+00",
        "dup_key": "generation pines farm|freehold|new jersey",
        "quality_score": "48",
        "is_primary": "TRUE",
        "latitude": "40.2768738",
        "longitude": "-74.2486683",
        "coord": "0101000020E61000005203722EEA8F52C0430FC69970234440",
        "has upick": "",
        "upick offerings": "",
        "upick source": ""
      },
      {
        "id": "2291",
        "name": "Four Star Tomato Inc",
        "site": "",
        "phone": "941-747-8780",
        "full_address": "3106 81st Ct E, Bradenton, FL 34211",
        "street": "",
        "city": "",
        "postal_code": "",
        "state": "",
        "reviews": "0",
        "working_hours": "{}",
        "imported_at": "2025-08-26 05:49:18.345127+00",
        "dup_key": "four star tomato inc|+19417478780",
        "quality_score": "",
        "is_primary": "TRUE",
        "latitude": "27.471842",
        "longitude": "-82.457751",
        "coord": "0101000020E610000086ADD9CA4B9D54C015E126A3CA783B40",
        "has upick": "",
        "upick offerings": "",
        "upick source": ""
      },
      {
        "id": "2252",
        "name": "Clonts Farms Inc",
        "site": "",
        "phone": "407-359-2995",
        "full_address": "1001 Geneva Dr, Oviedo, FL 32765",
        "street": "",
        "city": "",
        "postal_code": "",
        "state": "",
        "reviews": "2",
        "working_hours": "{}",
        "imported_at": "2025-08-26 05:49:18.345127+00",
        "dup_key": "clonts farms inc|+14073592995",
        "quality_score": "",
        "is_primary": "TRUE",
        "latitude": "28.677798",
        "longitude": "-81.192695",
        "coord": "0101000020E610000093C6681D554C54C0514B732B84AD3C40",
        "has upick": "",
        "upick offerings": "",
        "upick source": ""
      },
      {
        "id": "1377",
        "name": "Sacred Gate Farm",
        "site": "https://www.facebook.com/SacredGateFarms",
        "phone": "724-858-2880",
        "full_address": "942 Old State Rd, Apollo, PA 15613",
        "street": "942 Old State Rd",
        "city": "Apollo",
        "postal_code": "15613",
        "state": "Pennsylvania",
        "reviews": "56",
        "working_hours": "",
        "imported_at": "2025-08-23 16:58:33.980573+00",
        "dup_key": "sacred gate farm|apollo|pennsylvania",
        "quality_score": "126",
        "is_primary": "TRUE",
        "latitude": "40.5768172",
        "longitude": "-79.5455851",
        "coord": "0101000020E6100000D56BC4DDEAE253C099E26025D5494440",
        "has upick": "",
        "upick offerings": "",
        "upick source": ""
      }
    ],
    "count": 20,
    "status": "assigned",
    "assigned_at": "2025-09-07T04:30:45.560374"
  },
  "agent_6": {
    "farms": [
      {
        "id": "1285",
        "name": "Lockbriar Farms",
        "site": "http://www.lockbriarfarms.com/",
        "phone": "410-778-9112",
        "full_address": "10051 Worton Rd, Chestertown, MD 21620",
        "street": "10051 Worton Rd",
        "city": "Chestertown",
        "postal_code": "21620",
        "state": "Maryland",
        "reviews": "62",
        "working_hours": "",
        "imported_at": "2025-08-23 16:58:33.980573+00",
        "dup_key": "lockbriar farms|chestertown|maryland",
        "quality_score": "132",
        "is_primary": "TRUE",
        "latitude": "39.254088",
        "longitude": "-76.078042",
        "coord": "0101000020E6100000B96DDFA3FE0453C02D27A1F485A04340",
        "has upick": "",
        "upick offerings": "",
        "upick source": ""
      },
      {
        "id": "1417",
        "name": "Blue Moon Farm",
        "site": "http://www.bluemoonfarm-grandbay.com/",
        "phone": "251-263-2008",
        "full_address": "13620 Tom Gaston Rd, Mobile, AL 36695",
        "street": "13620 Tom Gaston Rd",
        "city": "Mobile",
        "postal_code": "36695",
        "state": "Alabama",
        "reviews": "52",
        "working_hours": "",
        "imported_at": "2025-08-23 16:58:34.414722+00",
        "dup_key": "blue moon farm|mobile|alabama",
        "quality_score": "122",
        "is_primary": "TRUE",
        "latitude": "30.597049",
        "longitude": "-88.3659339",
        "coord": "0101000020E6100000DB3F05766B1756C0061C0934D8983E40",
        "has upick": "",
        "upick offerings": "",
        "upick source": ""
      },
      {
        "id": "1512",
        "name": "Aufdenkampe Family Farm",
        "site": "http://www.afamilyfarm.com/",
        "phone": "440-984-3844",
        "full_address": "3275 N Ridge Rd, Vermilion, OH 44089",
        "street": "3275 N Ridge Rd",
        "city": "Vermilion",
        "postal_code": "44089",
        "state": "Ohio",
        "reviews": "46",
        "working_hours": "{\"Monday\": \"8:30AM-6PM\", \"Tuesday\": \"8:30AM-6PM\", \"Wednesday\": \"8:30AM-6PM\", \"Thursday\": \"8:30AM-6PM\", \"Friday\": \"8:30AM-6PM\", \"Saturday\": \"8:30AM-6PM\", \"Sunday\": \"8:30AM-6PM\"}",
        "imported_at": "2025-08-23 16:58:34.414722+00",
        "dup_key": "aufdenkampe family farm|vermilion|ohio",
        "quality_score": "116",
        "is_primary": "TRUE",
        "latitude": "41.383161",
        "longitude": "-82.3098677",
        "coord": "0101000020E61000008D6555DFD49354C0240D6E6B0BB14440",
        "has upick": "",
        "upick offerings": "",
        "upick source": ""
      },
      {
        "id": "1528",
        "name": "Reeves Farms - Fruit Stand and Pick Your Own",
        "site": "http://www.reevesfarms.com/",
        "phone": "315-635-3357",
        "full_address": "1220 W Genesee Rd, Baldwinsville, NY 13027",
        "street": "1220 W Genesee Rd",
        "city": "Baldwinsville",
        "postal_code": "13027",
        "state": "New York",
        "reviews": "46",
        "working_hours": "{\"Monday\": \"9AM-6PM\", \"Tuesday\": \"9AM-6PM\", \"Wednesday\": \"9AM-6PM\", \"Thursday\": \"9AM-6PM\", \"Friday\": \"9AM-6PM\", \"Saturday\": \"9AM-6PM\", \"Sunday\": \"9AM-5PM\"}",
        "imported_at": "2025-08-23 16:58:34.414722+00",
        "dup_key": "reeves farms - fruit stand and pick your own|baldwinsville|new york",
        "quality_score": "116",
        "is_primary": "TRUE",
        "latitude": "43.1659322",
        "longitude": "-76.4141401",
        "coord": "0101000020E6100000945D7A45811A53C03A2D2E443D954540",
        "has upick": "",
        "upick offerings": "",
        "upick source": ""
      },
      {
        "id": "2480",
        "name": "Wesley Wells Farms",
        "site": "https://wesleywellsfarm.com/",
        "phone": "904-679-5660",
        "full_address": "2680 Ada Arnold Rd, St. Augustine, FL 32092",
        "street": "",
        "city": "",
        "postal_code": "",
        "state": "",
        "reviews": "95",
        "working_hours": "{}",
        "imported_at": "2025-08-26 05:49:18.345127+00",
        "dup_key": "wesley wells farms|+19046795660",
        "quality_score": "",
        "is_primary": "TRUE",
        "latitude": "29.924329",
        "longitude": "-81.542807",
        "coord": "0101000020E61000008D429259BD6254C090BE49D3A0EC3D40",
        "has upick": "",
        "upick offerings": "",
        "upick source": ""
      },
      {
        "id": "1320",
        "name": "Palmer's Farm",
        "site": "http://www.palmersfarm.com/",
        "phone": "724-834-5287",
        "full_address": "Bailey Farm Rd, Greensburg, PA 15601",
        "street": "Bailey Farm Rd",
        "city": "Greensburg",
        "postal_code": "15601",
        "state": "Pennsylvania",
        "reviews": "60",
        "working_hours": "{\"Monday\": \"9:30AM-5:30PM\", \"Tuesday\": \"9:30AM-5:30PM\", \"Wednesday\": \"9:30AM-5:30PM\", \"Thursday\": \"9:30AM-5:30PM\", \"Friday\": \"9:30AM-5:30PM\", \"Saturday\": \"9:30AM-5:30PM\", \"Sunday\": \"10AM-4PM\"}",
        "imported_at": "2025-08-23 16:58:33.980573+00",
        "dup_key": "palmer's farm|greensburg|pennsylvania",
        "quality_score": "130",
        "is_primary": "TRUE",
        "latitude": "40.2680105",
        "longitude": "-79.4997942",
        "coord": "0101000020E6100000C0EECFA0FCDF53C0083E062B4E224440",
        "has upick": "",
        "upick offerings": "",
        "upick source": ""
      },
      {
        "id": "2023",
        "name": "South Coast Farms (U-Pick Farm)",
        "site": "http://southcoastfarms.com/",
        "phone": "",
        "full_address": "33201 Ortega Hwy., San Juan Capistrano, CA 92675",
        "street": "33201 Ortega Hwy.",
        "city": "San Juan Capistrano",
        "postal_code": "92675",
        "state": "California",
        "reviews": "24",
        "working_hours": "",
        "imported_at": "2025-08-23 16:58:34.816308+00",
        "dup_key": "south coast farms (u-pick farm)|san juan capistrano|california",
        "quality_score": "74",
        "is_primary": "TRUE",
        "latitude": "33.5317927",
        "longitude": "-117.5516342",
        "coord": "0101000020E6100000BA1688F94D635DC032607FC811C44040",
        "has upick": "",
        "upick offerings": "",
        "upick source": ""
      },
      {
        "id": "2013",
        "name": "Sleepy Hills Orchard",
        "site": "http://www.sleepyhillsorchard.com/",
        "phone": "845-726-3797",
        "full_address": "1328 NY-284, Johnson, NY 10933",
        "street": "1328 NY-284",
        "city": "Johnson",
        "postal_code": "10933",
        "state": "New York",
        "reviews": "24",
        "working_hours": "{\"Monday\": \"9AM-6PM\", \"Tuesday\": \"9AM-6PM\", \"Wednesday\": \"9AM-6PM\", \"Thursday\": \"9AM-6PM\", \"Friday\": \"9AM-6PM\", \"Saturday\": \"9AM-6PM\", \"Sunday\": \"9AM-6PM\"}",
        "imported_at": "2025-08-23 16:58:34.816308+00",
        "dup_key": "sleepy hills orchard|johnson|new york",
        "quality_score": "94",
        "is_primary": "TRUE",
        "latitude": "41.35825",
        "longitude": "-74.504371",
        "coord": "0101000020E610000040834D9D47A052C060E5D022DBAD4440",
        "has upick": "",
        "upick offerings": "",
        "upick source": ""
      },
      {
        "id": "2479",
        "name": "Wayside Fruit & Vegetable",
        "site": "https://www.facebook.com/PinecrestWaysideMarket/",
        "phone": "305-661-6717",
        "full_address": "10070 SW 57th Ave, Pinecrest, FL 33156",
        "street": "",
        "city": "",
        "postal_code": "",
        "state": "",
        "reviews": "456",
        "working_hours": "{\"Friday\":[\"7:30\u202fAM\u20136:30\u202fPM\"],\"Monday\":[\"7:30\u202fAM\u20136:30\u202fPM\"],\"Saturday\":[\"7:30\u202fAM\u20136:30\u202fPM\"],\"Sunday\":[\"7:30\u202fAM\u20136:30\u202fPM\"],\"Thursday\":[\"7:30\u202fAM\u20136:30\u202fPM\"],\"Tuesday\":[\"7:30\u202fAM\u20136:30\u202fPM\"],\"Wednesday\":[\"7:30\u202fAM\u20136:30\u202fPM\"]}",
        "imported_at": "2025-08-26 05:49:18.345127+00",
        "dup_key": "wayside fruit & vegetable|+13056616717",
        "quality_score": "",
        "is_primary": "TRUE",
        "latitude": "25.67841",
        "longitude": "-80.284779",
        "coord": "0101000020E61000009BE5B2D1391254C084471B47ACAD3940",
        "has upick": "",
        "upick offerings": "",
        "upick source": ""
      },
      {
        "id": "2199",
        "name": "Acres of Grace Family Farms",
        "site": "https://linktr.ee/AcresOfGrace",
        "phone": "407-463-1558",
        "full_address": "9200 E Dewey Robbins Rd, Howey-In-The-Hills, FL 34737",
        "street": "",
        "city": "",
        "postal_code": "",
        "state": "",
        "reviews": "12",
        "working_hours": "{}",
        "imported_at": "2025-08-26 05:49:18.345127+00",
        "dup_key": "acres of grace family farms|+14074631558",
        "quality_score": "",
        "is_primary": "TRUE",
        "latitude": "28.683333",
        "longitude": "-81.802818",
        "coord": "0101000020E6100000F8A8BF5E617354C00F4757E9EEAE3C40",
        "has upick": "",
        "upick offerings": "",
        "upick source": ""
      },
      {
        "id": "2332",
        "name": "Isaac Farms",
        "site": "https://isaacfarms.com/",
        "phone": "786-842-5857",
        "full_address": "18800 SW 177th Ave, Miami, FL 33187",
        "street": "",
        "city": "",
        "postal_code": "",
        "state": "",
        "reviews": "289",
        "working_hours": "{}",
        "imported_at": "2025-08-26 05:49:18.345127+00",
        "dup_key": "isaac farms|+17868425857",
        "quality_score": "",
        "is_primary": "TRUE",
        "latitude": "25.590234",
        "longitude": "-80.478684",
        "coord": "0101000020E6100000954737C2A21E54C0BDFC4E9319973940",
        "has upick": "",
        "upick offerings": "",
        "upick source": ""
      },
      {
        "id": "1726",
        "name": "WOW U-Pick Farms, LLC",
        "site": "https://www.facebook.com/@wowupickfarm",
        "phone": "940-312-9889",
        "full_address": "7271 Donald Rd, Krum, TX 76249",
        "street": "7271 Donald Rd",
        "city": "Krum",
        "postal_code": "76249",
        "state": "Texas",
        "reviews": "35",
        "working_hours": "{\"Monday\": \"Closed\", \"Tuesday\": \"9AM-6PM\", \"Wednesday\": \"9AM-6PM\", \"Thursday\": \"9AM-4PM\", \"Friday\": \"9AM-6PM\", \"Saturday\": \"9AM-4PM\", \"Sunday\": \"Closed\"}",
        "imported_at": "2025-08-23 16:58:34.414722+00",
        "dup_key": "wow u-pick farms, llc|krum|texas",
        "quality_score": "105",
        "is_primary": "TRUE",
        "latitude": "33.2724087",
        "longitude": "-97.3477322",
        "coord": "0101000020E610000008B18E3E415658C0ACD2CC49DEA24040",
        "has upick": "",
        "upick offerings": "",
        "upick source": ""
      },
      {
        "id": "2388",
        "name": "Pacetti Farms",
        "site": "",
        "phone": "904-940-5709",
        "full_address": "5560 FL-16, St. Augustine, FL 32092",
        "street": "",
        "city": "",
        "postal_code": "",
        "state": "",
        "reviews": "4",
        "working_hours": "{}",
        "imported_at": "2025-08-26 05:49:18.345127+00",
        "dup_key": "pacetti farms|+19049405709",
        "quality_score": "",
        "is_primary": "TRUE",
        "latitude": "29.964794",
        "longitude": "-81.4956",
        "coord": "0101000020E610000072F90FE9B75F54C0856055BDFCF63D40",
        "has upick": "",
        "upick offerings": "",
        "upick source": ""
      },
      {
        "id": "1003",
        "name": "HNH Blueberry Farm",
        "site": "https://www.facebook.com/HNH-Blueberry-Farm-1489358884610404/",
        "phone": "386-715-6004",
        "full_address": "130 Bostwick Park Dr, Palatka, FL 32177",
        "street": "130 Bostwick Park Dr",
        "city": "Palatka",
        "postal_code": "32177",
        "state": "Florida",
        "reviews": "93",
        "working_hours": "",
        "imported_at": "2025-08-23 16:58:33.580418+00",
        "dup_key": "hnh blueberry farm|palatka|florida",
        "quality_score": "163",
        "is_primary": "TRUE",
        "latitude": "29.7846608",
        "longitude": "-81.6394123",
        "coord": "0101000020E61000003F4A9121EC6854C00574BA87DFC83D40",
        "has upick": "",
        "upick offerings": "",
        "upick source": "Yes",
        "null": [
          "blueberries",
          "https://upickfarmsusa.com/fl/putnam-county/hnh-blueberry-farm/"
        ]
      },
      {
        "id": "1428",
        "name": "Taylor River Side Farm",
        "site": "http://www.taylorsfarm.org/",
        "phone": "856-829-4992",
        "full_address": "5 Taylors Ln, Cinnaminson, NJ 08077",
        "street": "5 Taylors Ln",
        "city": "Cinnaminson",
        "postal_code": "8077",
        "state": "New Jersey",
        "reviews": "52",
        "working_hours": "{\"Monday\": \"9AM-6PM\", \"Tuesday\": \"9AM-6PM\", \"Wednesday\": \"9AM-6PM\", \"Thursday\": \"9AM-6PM\", \"Friday\": \"9AM-6PM\", \"Saturday\": \"9AM-6PM\", \"Sunday\": \"9AM-6PM\"}",
        "imported_at": "2025-08-23 16:58:34.414722+00",
        "dup_key": "taylor river side farm|cinnaminson|new jersey",
        "quality_score": "122",
        "is_primary": "TRUE",
        "latitude": "40.0290434",
        "longitude": "-74.9930878",
        "coord": "0101000020E6100000A0C321C08EBF52C01395B2B1B7034440",
        "has upick": "",
        "upick offerings": "",
        "upick source": ""
      },
      {
        "id": "2348",
        "name": "KSR International Inc Farm",
        "site": "",
        "phone": "305-354-7201",
        "full_address": "16801 NE 15th Ave, North Miami Beach, FL 33162",
        "street": "",
        "city": "",
        "postal_code": "",
        "state": "",
        "reviews": "4",
        "working_hours": "{}",
        "imported_at": "2025-08-26 05:49:18.345127+00",
        "dup_key": "ksr international inc farm|+13053547201",
        "quality_score": "",
        "is_primary": "TRUE",
        "latitude": "25.930486",
        "longitude": "-80.169924",
        "coord": "0101000020E61000008DB3E908E00A54C0C7629B5434EE3940",
        "has upick": "",
        "upick offerings": "",
        "upick source": ""
      },
      {
        "id": "1816",
        "name": "Sharky's Orchard",
        "site": "https://sharkysorchard.godaddysites.com/",
        "phone": "",
        "full_address": "W3045 Emons Rd, Appleton, WI 54915",
        "street": "W3045 Emons Rd",
        "city": "Appleton",
        "postal_code": "54915",
        "state": "Wisconsin",
        "reviews": "32",
        "working_hours": "",
        "imported_at": "2025-08-23 16:58:34.816308+00",
        "dup_key": "sharky's orchard|appleton|wisconsin",
        "quality_score": "82",
        "is_primary": "TRUE",
        "latitude": "44.250449",
        "longitude": "-88.34132",
        "coord": "0101000020E6100000205ED72FD81556C070287CB60E204640",
        "has upick": "",
        "upick offerings": "",
        "upick source": ""
      },
      {
        "id": "2131",
        "name": "Patrick's Berry Farm",
        "site": "",
        "phone": "",
        "full_address": "4455 Pony Express Trail, Camino, CA 95709",
        "street": "4455 Pony Express Trail",
        "city": "Camino",
        "postal_code": "95709",
        "state": "California",
        "reviews": "21",
        "working_hours": "",
        "imported_at": "2025-08-23 16:58:34.816308+00",
        "dup_key": "patrick's berry farm|camino|california",
        "quality_score": "21",
        "is_primary": "TRUE",
        "latitude": "38.7447268",
        "longitude": "-120.6588541",
        "coord": "0101000020E6100000791563AA2A2A5EC0353A3135535F4340",
        "has upick": "",
        "upick offerings": "",
        "upick source": ""
      },
      {
        "id": "1523",
        "name": "Blueberry Hill U-Pick",
        "site": "https://www.facebook.com/blueberryhillupick",
        "phone": "919-498-4282",
        "full_address": "3250 White Hill Rd, Sanford, NC 27332",
        "street": "3250 White Hill Rd",
        "city": "Sanford",
        "postal_code": "27332",
        "state": "North Carolina",
        "reviews": "46",
        "working_hours": "{\"Monday\": \"8AM-5PM\", \"Tuesday\": \"8AM-5PM\", \"Wednesday\": \"8AM-5PM\", \"Thursday\": \"8AM-5PM\", \"Friday\": \"8AM-5PM\", \"Saturday\": \"8AM-5PM\", \"Sunday\": \"1-5PM\"}",
        "imported_at": "2025-08-23 16:58:34.414722+00",
        "dup_key": "blueberry hill u-pick|sanford|north carolina",
        "quality_score": "116",
        "is_primary": "TRUE",
        "latitude": "35.3837313",
        "longitude": "-79.2773253",
        "coord": "0101000020E61000009E769DB2BFD153C0CDF9731B1EB14140",
        "has upick": "",
        "upick offerings": "",
        "upick source": ""
      },
      {
        "id": "2170",
        "name": "Jessie's Tropical Fruit Farm",
        "site": "https://lovetropicalfruit.com/",
        "phone": "239-682-1884",
        "full_address": "1255 Dove Tree St, Naples, FL 34117",
        "street": "1255 Dove Tree St",
        "city": "Naples",
        "postal_code": "34117",
        "state": "Florida",
        "reviews": "20",
        "working_hours": "{\"Monday\": \"Closed\", \"Tuesday\": \"1-6PM\", \"Wednesday\": \"1-4PM\", \"Thursday\": \"1-6PM\", \"Friday\": \"1-4PM\", \"Saturday\": \"Closed\", \"Sunday\": \"Closed\"}",
        "imported_at": "2025-08-23 16:58:34.816308+00",
        "dup_key": "jessie's tropical fruit farm|naples|florida",
        "quality_score": "90",
        "is_primary": "TRUE",
        "latitude": "26.2069696",
        "longitude": "-81.5887844",
        "coord": "0101000020E61000004799C3A4AE6554C02644AFF5FB343A40",
        "has upick": "",
        "upick offerings": "",
        "upick source": ""
      }
    ],
    "count": 20,
    "status": "assigned",
    "assigned_at": "2025-09-07T04:30:45.560375"
  },
  "agent_7": {
    "farms": [
      {
        "id": "907",
        "name": "Driving Wind Berry Farm",
        "site": "https://www.drivingwindberryfarm.com/",
        "phone": "317-492-9512",
        "full_address": "6410 Michigan Rd #6410, Indianapolis, IN 46268",
        "street": "6410 Michigan Rd #6410",
        "city": "Indianapolis",
        "postal_code": "46268",
        "state": "Indiana",
        "reviews": "110",
        "working_hours": "{\"Monday\": \"8AM-3PM\", \"Tuesday\": \"8AM-3PM\", \"Wednesday\": \"8AM-3PM\", \"Thursday\": \"8AM-3PM\", \"Friday\": \"8AM-3PM\", \"Saturday\": \"8AM-3PM\", \"Sunday\": \"Closed\"}",
        "imported_at": "2025-08-23 16:58:33.580418+00",
        "dup_key": "driving wind berry farm|indianapolis|indiana",
        "quality_score": "180",
        "is_primary": "TRUE",
        "latitude": "39.8718505",
        "longitude": "-86.2047113",
        "coord": "0101000020E6100000C9A76CFD198D55C0294014CC98EF4340",
        "has upick": "",
        "upick offerings": "",
        "upick source": ""
      },
      {
        "id": "1752",
        "name": "Blues Berry Farm, LLC",
        "site": "http://bluesberryfarm.com/",
        "phone": "813-597-4019",
        "full_address": "1201 Holloway Rd, Plant City, FL 33567",
        "street": "1201 Holloway Rd",
        "city": "Plant City",
        "postal_code": "33567",
        "state": "Florida",
        "reviews": "34",
        "working_hours": "",
        "imported_at": "2025-08-23 16:58:34.414722+00",
        "dup_key": "blues berry farm, llc|plant city|florida",
        "quality_score": "104",
        "is_primary": "TRUE",
        "latitude": "27.9519212",
        "longitude": "-82.1339023",
        "coord": "0101000020E6100000FDD6F3DA918854C07C5E961BB1F33B40",
        "has upick": "",
        "upick offerings": "",
        "upick source": ""
      },
      {
        "id": "2270",
        "name": "Earth 'n' Us Farm",
        "site": "",
        "phone": "772-475-1086",
        "full_address": "7630 NE 1st Ave, Miami, FL 33138",
        "street": "",
        "city": "",
        "postal_code": "",
        "state": "",
        "reviews": "97",
        "working_hours": "{}",
        "imported_at": "2025-08-26 05:49:18.345127+00",
        "dup_key": "earth 'n' us farm|+17724751086",
        "quality_score": "",
        "is_primary": "TRUE",
        "latitude": "25.845327",
        "longitude": "-80.195437",
        "coord": "0101000020E61000006ADB300A820C54C0016DAB5967D83940",
        "has upick": "",
        "upick offerings": "",
        "upick source": ""
      },
      {
        "id": "1570",
        "name": "Guldseth Cherry Orchards",
        "site": "https://www.guldsethcherryorchard.com/",
        "phone": "951-845-2490",
        "full_address": "9150 Whispering Pines Rd, Cherry Valley, CA 92223",
        "street": "9150 Whispering Pines Rd",
        "city": "Cherry Valley",
        "postal_code": "92223",
        "state": "California",
        "reviews": "43",
        "working_hours": "{\"Sunday\": \"12-5PM\", \"Monday\": \"9AM-5PM\", \"Tuesday\": \"9AM-5PM\", \"Wednesday\": \"9AM-5PM\", \"Thursday\": \"9AM-5PM\", \"Friday\": \"9AM-5PM\", \"Saturday\": \"9AM-5PM\"}",
        "imported_at": "2025-08-23 16:58:34.414722+00",
        "dup_key": "guldseth cherry orchards|cherry valley|california",
        "quality_score": "113",
        "is_primary": "TRUE",
        "latitude": "33.9881248",
        "longitude": "-116.958336",
        "coord": "0101000020E610000016A58460553D5DC0EB2E9ADF7AFE4040",
        "has upick": "",
        "upick offerings": "",
        "upick source": ""
      },
      {
        "id": "2287",
        "name": "FELICIA'S FARMS",
        "site": "",
        "phone": "786-402-3297",
        "full_address": "20508 SW 140th Ave, Miami, FL 33177",
        "street": "",
        "city": "",
        "postal_code": "",
        "state": "",
        "reviews": "15",
        "working_hours": "{\"Friday\":[\"9\u202fAM\u20136\u202fPM\"],\"Monday\":[\"9\u202fAM\u20136\u202fPM\"],\"Saturday\":[\"9\u202fAM\u20136\u202fPM\"],\"Sunday\":[\"9\u202fAM\u20136\u202fPM\"],\"Thursday\":[\"9\u202fAM\u20136\u202fPM\"],\"Tuesday\":[\"9\u202fAM\u20136\u202fPM\"],\"Wednesday\":[\"9\u202fAM\u20136\u202fPM\"]}",
        "imported_at": "2025-08-26 05:49:18.345127+00",
        "dup_key": "felicia's farms|+17864023297",
        "quality_score": "",
        "is_primary": "TRUE",
        "latitude": "25.575614",
        "longitude": "-80.420062",
        "coord": "0101000020E6100000B612BA4BE21A54C0A81E69705B933940",
        "has upick": "",
        "upick offerings": "",
        "upick source": ""
      },
      {
        "id": "1409",
        "name": "Pochuck Valley Farms of Augusta",
        "site": "",
        "phone": "",
        "full_address": "145 US-206, Augusta, NJ 07822",
        "street": "145 US-206",
        "city": "Augusta",
        "postal_code": "7822",
        "state": "New Jersey",
        "reviews": "53",
        "working_hours": "",
        "imported_at": "2025-08-23 16:58:34.414722+00",
        "dup_key": "pochuck valley farms of augusta|augusta|new jersey",
        "quality_score": "53",
        "is_primary": "TRUE",
        "latitude": "41.1285977",
        "longitude": "-74.7282342",
        "coord": "0101000020E61000000A359E639BAE52C0A0EBB1E375904440",
        "has upick": "",
        "upick offerings": "",
        "upick source": ""
      },
      {
        "id": "1826",
        "name": "AVEnue, Orchard.",
        "site": "http://aveappleorchard.com/",
        "phone": "715-563-5874",
        "full_address": "6700 US-53, Eau Claire, WI 54701",
        "street": "6700 US-53",
        "city": "Eau Claire",
        "postal_code": "54701",
        "state": "Wisconsin",
        "reviews": "31",
        "working_hours": "{\"Monday\": \"2-6PM\", \"Tuesday\": \"Closed\", \"Wednesday\": \"Closed\", \"Thursday\": \"Closed\", \"Friday\": \"Closed\", \"Saturday\": \"2-6PM\", \"Sunday\": \"2-6PM\"}",
        "imported_at": "2025-08-23 16:58:34.816308+00",
        "dup_key": "avenue, orchard.|eau claire|wisconsin",
        "quality_score": "101",
        "is_primary": "TRUE",
        "latitude": "44.7350675",
        "longitude": "-91.3803509",
        "coord": "0101000020E610000044204DAB57D856C01F6D1CB1165E4640",
        "has upick": "",
        "upick offerings": "",
        "upick source": ""
      },
      {
        "id": "1994",
        "name": "Pinnacle Farm South",
        "site": "http://www.phoenixpinnaclefarms.com/",
        "phone": "602-448-7008",
        "full_address": "8841 S 27th Ave, Phoenix, AZ 85339",
        "street": "8841 S 27th Ave",
        "city": "Phoenix",
        "postal_code": "85339",
        "state": "Arizona",
        "reviews": "25",
        "working_hours": "{\"Sunday\": \"6:30AM-6PM\", \"Monday\": \"6:30AM-6PM\", \"Tuesday\": \"6:30AM-6PM\", \"Wednesday\": \"6:30AM-6PM\", \"Thursday\": \"6:30AM-6PM\", \"Friday\": \"6:30AM-6PM\", \"Saturday\": \"6:30AM-6PM\"}",
        "imported_at": "2025-08-23 16:58:34.816308+00",
        "dup_key": "pinnacle farm south|phoenix|arizona",
        "quality_score": "95",
        "is_primary": "TRUE",
        "latitude": "33.3649365",
        "longitude": "-112.1168318",
        "coord": "0101000020E61000008008162C7A075CC0F04E3E3DB6AE4040",
        "has upick": "",
        "upick offerings": "",
        "upick source": ""
      },
      {
        "id": "1531",
        "name": "Stone View Farm",
        "site": "https://stoneviewfarm.com/",
        "phone": "667-415-3221",
        "full_address": "3201 Deths Ford Rd, Darlington, MD 21034",
        "street": "3201 Deths Ford Rd",
        "city": "Darlington",
        "postal_code": "21034",
        "state": "Maryland",
        "reviews": "45",
        "working_hours": "{\"Monday\": \"8AM-12PM,4-7PM\", \"Tuesday\": \"8AM-12PM,4-7PM\", \"Wednesday\": \"8AM-12PM,4-7PM\", \"Thursday\": \"8AM-12PM,4-7PM\", \"Friday\": \"8AM-12PM,4-7PM\", \"Saturday\": \"8AM-1PM\", \"Sunday\": \"Closed\"}",
        "imported_at": "2025-08-23 16:58:34.414722+00",
        "dup_key": "stone view farm|darlington|maryland",
        "quality_score": "115",
        "is_primary": "TRUE",
        "latitude": "39.6245918",
        "longitude": "-76.2085113",
        "coord": "0101000020E61000002C96C73F580D53C0C52CC59FF2CF4340",
        "has upick": "",
        "upick offerings": "",
        "upick source": ""
      },
      {
        "id": "2354",
        "name": "Langmar Farms",
        "site": "https://www.facebook.com/langmarfarms",
        "phone": "904-651-3711",
        "full_address": "1810 Imeson Rd, Jacksonville, FL 32220",
        "street": "",
        "city": "",
        "postal_code": "",
        "state": "",
        "reviews": "0",
        "working_hours": "{}",
        "imported_at": "2025-08-26 05:49:18.345127+00",
        "dup_key": "langmar farms|+19046513711",
        "quality_score": "",
        "is_primary": "TRUE",
        "latitude": "30.345784",
        "longitude": "-81.773781",
        "coord": "0101000020E61000000951BEA0857154C0E57ADB4C85583E40",
        "has upick": "",
        "upick offerings": "",
        "upick source": ""
      },
      {
        "id": "2335",
        "name": "Jessica's Organic Farm",
        "site": "http://www.jessicasorganicfarm.com/",
        "phone": "941-363-1586",
        "full_address": "4180 47th St, Sarasota, FL 34235",
        "street": "",
        "city": "",
        "postal_code": "",
        "state": "",
        "reviews": "315",
        "working_hours": "{\"Friday\":[\"10\u202fAM\u20133\u202fPM\"],\"Monday\":[\"Closed\"],\"Saturday\":[\"10\u202fAM\u20133\u202fPM\"],\"Sunday\":[\"Closed\"],\"Thursday\":[\"Closed\"],\"Tuesday\":[\"Closed\"],\"Wednesday\":[\"Closed\"]}",
        "imported_at": "2025-08-26 05:49:18.345127+00",
        "dup_key": "jessica's organic farm|+19413631586",
        "quality_score": "",
        "is_primary": "TRUE",
        "latitude": "27.374051",
        "longitude": "-82.485379",
        "coord": "0101000020E610000092CA1473109F54C03E096CCEC15F3B40",
        "has upick": "",
        "upick offerings": "",
        "upick source": ""
      },
      {
        "id": "850",
        "name": "Paugh's Orchard",
        "site": "",
        "phone": "540-740-8028",
        "full_address": "5591 Senedo Rd, Quicksburg, VA 22847",
        "street": "5591 Senedo Rd",
        "city": "Quicksburg",
        "postal_code": "22847",
        "state": "Virginia",
        "reviews": "122",
        "working_hours": "{\"Monday\": \"9AM-6PM\", \"Tuesday\": \"Closed\", \"Wednesday\": \"9AM-6PM\", \"Thursday\": \"9AM-6PM\", \"Friday\": \"9AM-6PM\", \"Saturday\": \"9AM-6PM\", \"Sunday\": \"2-6PM\"}",
        "imported_at": "2025-08-23 16:58:33.580418+00",
        "dup_key": "paugh's orchard|quicksburg|virginia",
        "quality_score": "142",
        "is_primary": "TRUE",
        "latitude": "38.731077",
        "longitude": "-78.750813",
        "coord": "0101000020E6100000581AF8510DB053C0CCED5EEE935D4340",
        "has upick": "",
        "upick offerings": "",
        "upick source": ""
      },
      {
        "id": "2490",
        "name": "Your Farm & Garden",
        "site": "https://yourfarmandgarden.com/",
        "phone": "941-366-4954",
        "full_address": "735 S Beneva Rd, Sarasota, FL 34232",
        "street": "",
        "city": "",
        "postal_code": "",
        "state": "",
        "reviews": "415",
        "working_hours": "{\"Friday\":[\"8:30\u202fAM\u20135:30\u202fPM\"],\"Monday\":[\"8:30\u202fAM\u20135:30\u202fPM\"],\"Saturday\":[\"9\u202fAM\u20135\u202fPM\"],\"Sunday\":[\"10\u202fAM\u20134\u202fPM\"],\"Thursday\":[\"8:30\u202fAM\u20135:30\u202fPM\"],\"Tuesday\":[\"8:30\u202fAM\u20135:30\u202fPM\"],\"Wednesday\":[\"8:30\u202fAM\u20135:30\u202fPM\"]}",
        "imported_at": "2025-08-26 05:49:18.345127+00",
        "dup_key": "your farm & garden|+19413664954",
        "quality_score": "",
        "is_primary": "TRUE",
        "latitude": "27.32954",
        "longitude": "-82.496846",
        "coord": "0101000020E610000080492A53CC9F54C04EB9C2BB5C543B40",
        "has upick": "",
        "upick offerings": "",
        "upick source": ""
      },
      {
        "id": "1880",
        "name": "Weymouth Farms & Orchard, Winery",
        "site": "http://www.weymouthfarms.com/",
        "phone": "",
        "full_address": "2398 Weymouth Rd, Hinckley, OH 44233",
        "street": "2398 Weymouth Rd",
        "city": "Hinckley",
        "postal_code": "44233",
        "state": "Ohio",
        "reviews": "29",
        "working_hours": "{\"Monday\": \"Closed\", \"Tuesday\": \"Closed\", \"Wednesday\": \"Closed\", \"Thursday\": \"Closed\", \"Friday\": \"2-7PM\", \"Saturday\": \"2-7PM\", \"Sunday\": \"1-5PM\"}",
        "imported_at": "2025-08-23 16:58:34.816308+00",
        "dup_key": "weymouth farms & orchard, winery|hinckley|ohio",
        "quality_score": "79",
        "is_primary": "TRUE",
        "latitude": "41.2114954",
        "longitude": "-81.7594437",
        "coord": "0101000020E6100000CEA9BFB99A7054C091200148129B4440",
        "has upick": "",
        "upick offerings": "",
        "upick source": ""
      },
      {
        "id": "2242",
        "name": "By Their Fruits",
        "site": "",
        "phone": "954-786-9695",
        "full_address": "40 W McNab Rd, Pompano Beach, FL 33060",
        "street": "",
        "city": "",
        "postal_code": "",
        "state": "",
        "reviews": "180",
        "working_hours": "{\"Friday\":[\"8\u202fAM\u20136\u202fPM\"],\"Monday\":[\"8\u202fAM\u20136\u202fPM\"],\"Saturday\":[\"8\u202fAM\u20136\u202fPM\"],\"Sunday\":[\"Closed\"],\"Thursday\":[\"8\u202fAM\u20136\u202fPM\"],\"Tuesday\":[\"8\u202fAM\u20136\u202fPM\"],\"Wednesday\":[\"8\u202fAM\u20136\u202fPM\"]}",
        "imported_at": "2025-08-26 05:49:18.345127+00",
        "dup_key": "by their fruits|+19547869695",
        "quality_score": "",
        "is_primary": "TRUE",
        "latitude": "26.210712",
        "longitude": "-80.123738",
        "coord": "0101000020E610000070D1C952EB0754C0F0DFBC38F1353A40",
        "has upick": "",
        "upick offerings": "",
        "upick source": ""
      },
      {
        "id": "1033",
        "name": "Cabalo's Orchard and Gardens",
        "site": "http://www.cabalosorchard.com/",
        "phone": "208-922-3301",
        "full_address": "2087 W King Rd, Kuna, ID 83634",
        "street": "2087 W King Rd",
        "city": "Kuna",
        "postal_code": "83634",
        "state": "Idaho",
        "reviews": "89",
        "working_hours": "{\"Sunday\": \"1-6PM\", \"Monday\": \"Closed\", \"Tuesday\": \"Closed\", \"Wednesday\": \"Closed\", \"Thursday\": \"9AM-6PM\", \"Friday\": \"9AM-6PM\", \"Saturday\": \"9AM-6PM\"}",
        "imported_at": "2025-08-23 16:58:33.980573+00",
        "dup_key": "cabalo's orchard and gardens|kuna|idaho",
        "quality_score": "159",
        "is_primary": "TRUE",
        "latitude": "43.4735313",
        "longitude": "-116.4390413",
        "coord": "0101000020E6100000F945AE40191C5DC0F19073AC9CBC4540",
        "has upick": "",
        "upick offerings": "",
        "upick source": ""
      },
      {
        "id": "1422",
        "name": "Schartner Farms",
        "site": "",
        "phone": "",
        "full_address": "River Rd, North Conway, NH 03860",
        "street": "River Rd",
        "city": "North Conway",
        "postal_code": "3860",
        "state": "New Hampshire",
        "reviews": "52",
        "working_hours": "",
        "imported_at": "2025-08-23 16:58:34.414722+00",
        "dup_key": "schartner farms|north conway|new hampshire",
        "quality_score": "52",
        "is_primary": "TRUE",
        "latitude": "44.0575297",
        "longitude": "-71.1485952",
        "coord": "0101000020E6100000ED15719582C951C03C061A225D074640",
        "has upick": "",
        "upick offerings": "",
        "upick source": ""
      },
      {
        "id": "1971",
        "name": "Thistlehair Farm",
        "site": "https://www.facebook.com/pages/Thistlehair-Farm/902532216536491",
        "phone": "",
        "full_address": "10570 Big Bone Rd, Union, KY 41091",
        "street": "10570 Big Bone Rd",
        "city": "Union",
        "postal_code": "41091",
        "state": "Kentucky",
        "reviews": "26",
        "working_hours": "",
        "imported_at": "2025-08-23 16:58:34.816308+00",
        "dup_key": "thistlehair farm|union|kentucky",
        "quality_score": "76",
        "is_primary": "TRUE",
        "latitude": "38.925422",
        "longitude": "-84.721834",
        "coord": "0101000020E610000004C93B87322E55C0DC7F643A74764340",
        "has upick": "",
        "upick offerings": "",
        "upick source": ""
      },
      {
        "id": "1844",
        "name": "Deep Spring Farm",
        "site": "https://www.deepspringfarm.com/",
        "phone": "352-507-8128",
        "full_address": "16419 W County Rd 1491, Alachua, FL 32615",
        "street": "16419 W County Rd 1491",
        "city": "Alachua",
        "postal_code": "32615",
        "state": "Florida",
        "reviews": "30",
        "working_hours": "",
        "imported_at": "2025-08-23 16:58:34.816308+00",
        "dup_key": "deep spring farm|alachua|florida",
        "quality_score": "100",
        "is_primary": "TRUE",
        "latitude": "29.9299502",
        "longitude": "-82.518422",
        "coord": "0101000020E6100000B9E177D32DA154C09EE85F3711EE3D40",
        "has upick": "",
        "upick offerings": "",
        "upick source": ""
      },
      {
        "id": "1700",
        "name": "Merrick Farm",
        "site": "",
        "phone": "718-341-3843",
        "full_address": "Rosedale, NY 11422",
        "street": "",
        "city": "Rosedale",
        "postal_code": "11422",
        "state": "New York",
        "reviews": "36",
        "working_hours": "{\"Monday\": \"7:30AM-9PM\", \"Tuesday\": \"7:30AM-9PM\", \"Wednesday\": \"7:30AM-9PM\", \"Thursday\": \"7:30AM-9PM\", \"Friday\": \"7:30AM-9PM\", \"Saturday\": \"7:30AM-9PM\", \"Sunday\": \"7:30AM-8PM\"}",
        "imported_at": "2025-08-23 16:58:34.414722+00",
        "dup_key": "merrick farm|rosedale|new york",
        "quality_score": "56",
        "is_primary": "TRUE",
        "latitude": "40.6742106",
        "longitude": "-73.7350888",
        "coord": "0101000020E6100000FAE9E4B10B6F52C0E9CE6E884C564440",
        "has upick": "",
        "upick offerings": "",
        "upick source": ""
      }
    ],
    "count": 20,
    "status": "assigned",
    "assigned_at": "2025-09-07T04:30:45.560377"
  },
  "agent_8": {
    "farms": [
      {
        "id": "1308",
        "name": "Scenic Ridge Fruit Farm",
        "site": "http://www.baumanorchards.com/locations/scenic-ridge/",
        "phone": "419-368-3353",
        "full_address": "9654, 2031 OH-89, Jeromesville, OH 44840",
        "street": "9654, 2031 OH-89",
        "city": "Jeromesville",
        "postal_code": "44840",
        "state": "OH",
        "reviews": "61",
        "working_hours": "{\"Monday\": \"9AM-5PM\", \"Tuesday\": \"9AM-5PM\", \"Wednesday\": \"9AM-5PM\", \"Thursday\": \"9AM-5PM\", \"Friday\": \"9AM-5PM\", \"Saturday\": \"9AM-5PM\", \"Sunday\": \"Closed\"}",
        "imported_at": "2025-08-23 16:58:33.980573+00",
        "dup_key": "scenic ridge fruit farm|jeromesville|oh",
        "quality_score": "131",
        "is_primary": "TRUE",
        "latitude": "40.7664344",
        "longitude": "-82.1798708",
        "coord": "0101000020E610000058E0D000838B54C0C343BD851A624440",
        "has upick": "",
        "upick offerings": "",
        "upick source": ""
      },
      {
        "id": "1703",
        "name": "Philip Orchards",
        "site": "https://philiporchardsny.com/",
        "phone": "518-851-6351",
        "full_address": "270 NY-9H, Claverack, NY 12513",
        "street": "270 NY-9H",
        "city": "Claverack",
        "postal_code": "12513",
        "state": "New York",
        "reviews": "36",
        "working_hours": "",
        "imported_at": "2025-08-23 16:58:34.414722+00",
        "dup_key": "philip orchards|claverack|new york",
        "quality_score": "106",
        "is_primary": "TRUE",
        "latitude": "42.2399924",
        "longitude": "-73.7288989",
        "coord": "0101000020E6100000C8659247A66E52C0EFA42A12B81E4540",
        "has upick": "",
        "upick offerings": "",
        "upick source": ""
      },
      {
        "id": "1365",
        "name": "Mabry Farm",
        "site": "",
        "phone": "770-993-4997",
        "full_address": "4480 Sandy Plains Rd, Marietta, GA 30066",
        "street": "4480 Sandy Plains Rd",
        "city": "Marietta",
        "postal_code": "30066",
        "state": "Georgia",
        "reviews": "57",
        "working_hours": "",
        "imported_at": "2025-08-23 16:58:33.980573+00",
        "dup_key": "mabry farm|marietta|georgia",
        "quality_score": "77",
        "is_primary": "TRUE",
        "latitude": "34.0585347",
        "longitude": "-84.4330508",
        "coord": "0101000020E61000006DE0B31AB71B55C03117A7107E074140",
        "has upick": "",
        "upick offerings": "",
        "upick source": ""
      },
      {
        "id": "2237",
        "name": "Brave Harvest Farm",
        "site": "http://www.braveharvest.org/",
        "phone": "352-448-9386",
        "full_address": "2025 NW 6th St, Gainesville, FL 32609",
        "street": "",
        "city": "",
        "postal_code": "",
        "state": "",
        "reviews": "1",
        "working_hours": "{}",
        "imported_at": "2025-08-26 05:49:18.345127+00",
        "dup_key": "brave harvest farm|+13524489386",
        "quality_score": "",
        "is_primary": "TRUE",
        "latitude": "29.671361",
        "longitude": "-82.330172",
        "coord": "0101000020E61000008483BD89219554C053CF8250DEAB3D40",
        "has upick": "",
        "upick offerings": "",
        "upick source": ""
      },
      {
        "id": "1331",
        "name": "DJ's U-Pick Blueberry Farm",
        "site": "http://www.djsupickblueberries.com/",
        "phone": "678-687-2602",
        "full_address": "1839 Prospect Rd, Lawrenceville, GA 30043",
        "street": "1839 Prospect Rd",
        "city": "Lawrenceville",
        "postal_code": "30043",
        "state": "Georgia",
        "reviews": "59",
        "working_hours": "",
        "imported_at": "2025-08-23 16:58:33.980573+00",
        "dup_key": "dj's u-pick blueberry farm|lawrenceville|georgia",
        "quality_score": "129",
        "is_primary": "TRUE",
        "latitude": "34.0262257",
        "longitude": "-83.9719994",
        "coord": "0101000020E6100000D3AEF83C35FE54C048E81D5D5B034140",
        "has upick": "",
        "upick offerings": "",
        "upick source": ""
      },
      {
        "id": "2339",
        "name": "Joshua Citrus Inc",
        "site": "https://www.joshuacitrus.com/",
        "phone": "863-494-6166",
        "full_address": "4135 Co Rd 760, Arcadia, FL 34266",
        "street": "",
        "city": "",
        "postal_code": "",
        "state": "",
        "reviews": "717",
        "working_hours": "{\"Friday\":[\"10\u202fAM\u20135\u202fPM\"],\"Monday\":[\"10\u202fAM\u20135\u202fPM\"],\"Saturday\":[\"10\u202fAM\u20134\u202fPM\"],\"Sunday\":[\"Closed\"],\"Thursday\":[\"10\u202fAM\u20135\u202fPM\"],\"Tuesday\":[\"10\u202fAM\u20135\u202fPM\"],\"Wednesday\":[\"10\u202fAM\u20135\u202fPM\"]}",
        "imported_at": "2025-08-26 05:49:18.345127+00",
        "dup_key": "joshua citrus inc|+18634946166",
        "quality_score": "",
        "is_primary": "TRUE",
        "latitude": "27.178028",
        "longitude": "-81.809697",
        "coord": "0101000020E6100000D6AA5D13D27354C0B5C5353E932D3B40",
        "has upick": "",
        "upick offerings": "",
        "upick source": ""
      },
      {
        "id": "1454",
        "name": "Braddock Farms - Grow Pittsburgh",
        "site": "http://www.growpittsburgh.org/",
        "phone": "412-362-4769",
        "full_address": "1000 Braddock Ave, Braddock, PA 15104",
        "street": "1000 Braddock Ave",
        "city": "Braddock",
        "postal_code": "15104",
        "state": "Pennsylvania",
        "reviews": "50",
        "working_hours": "{\"Monday\": \"Closed\", \"Tuesday\": \"Closed\", \"Wednesday\": \"3:30-6PM\", \"Thursday\": \"Closed\", \"Friday\": \"3:30-6PM\", \"Saturday\": \"9AM-1PM\", \"Sunday\": \"Closed\"}",
        "imported_at": "2025-08-23 16:58:34.414722+00",
        "dup_key": "braddock farms - grow pittsburgh|braddock|pennsylvania",
        "quality_score": "120",
        "is_primary": "TRUE",
        "latitude": "40.399024",
        "longitude": "-79.863161",
        "coord": "0101000020E6100000B08BA2073EF753C0D828EB3713334440",
        "has upick": "",
        "upick offerings": "",
        "upick source": ""
      },
      {
        "id": "1459",
        "name": "Williams U Pick Blueberry Farm",
        "site": "https://www.williamsblueberryfarm.com/",
        "phone": "321-698-7038",
        "full_address": "2870 Cory Ct, Mims, FL 32754",
        "street": "2870 Cory Ct",
        "city": "Mims",
        "postal_code": "32754",
        "state": "Florida",
        "reviews": "49",
        "working_hours": "",
        "imported_at": "2025-08-23 16:58:34.414722+00",
        "dup_key": "williams u pick blueberry farm|mims|florida",
        "quality_score": "119",
        "is_primary": "TRUE",
        "latitude": "28.676034",
        "longitude": "-80.85926",
        "coord": "0101000020E6100000B3B0A71DFE3654C0E9FB709010AD3C40",
        "has upick": "",
        "upick offerings": "",
        "upick source": ""
      },
      {
        "id": "2214",
        "name": "Beck Brothers Citrus Inc",
        "site": "https://www.facebook.com/Beck-Brothers-blueberries-U-Pick-121170221296165/",
        "phone": "407-656-4353",
        "full_address": "12500 Overstreet Rd, Windermere, FL 34786",
        "street": "",
        "city": "",
        "postal_code": "",
        "state": "",
        "reviews": "212",
        "working_hours": "{\"Friday\":[\"9\u202fAM\u20135\u202fPM\"],\"Monday\":[\"9\u202fAM\u20135\u202fPM\"],\"Saturday\":[\"9\u202fAM\u20135\u202fPM\"],\"Sunday\":[\"9\u202fAM\u20135\u202fPM\"],\"Thursday\":[\"9\u202fAM\u20135\u202fPM\"],\"Tuesday\":[\"9\u202fAM\u20135\u202fPM\"],\"Wednesday\":[\"9\u202fAM\u20135\u202fPM\"]}",
        "imported_at": "2025-08-26 05:49:18.345127+00",
        "dup_key": "beck brothers citrus inc|+14076564353",
        "quality_score": "",
        "is_primary": "TRUE",
        "latitude": "28.458566",
        "longitude": "-81.566565",
        "coord": "0101000020E6100000BA83D899426454C0BB0ED59464753C40",
        "has upick": "",
        "upick offerings": "",
        "upick source": ""
      },
      {
        "id": "2380",
        "name": "North Florida Farms",
        "site": "http://www.northfloridafarms.org/contact-us/",
        "phone": "888-589-7769",
        "full_address": "3539 Apalachee Pkwy #3, Tallahassee, FL 32311",
        "street": "",
        "city": "",
        "postal_code": "",
        "state": "",
        "reviews": "0",
        "working_hours": "{}",
        "imported_at": "2025-08-26 05:49:18.345127+00",
        "dup_key": "north florida farms|+18885897769",
        "quality_score": "",
        "is_primary": "TRUE",
        "latitude": "30.427711",
        "longitude": "-84.213785",
        "coord": "0101000020E610000006D847A7AE0D55C0B323D5777E6D3E40",
        "has upick": "",
        "upick offerings": "",
        "upick source": ""
      },
      {
        "id": "1539",
        "name": "Farm Wagon",
        "site": "https://pennfarmers.com/farm-wagon-produce/",
        "phone": "",
        "full_address": "1061 Weaverland Rd, East Earl, PA 17519",
        "street": "1061 Weaverland Rd",
        "city": "East Earl",
        "postal_code": "17519",
        "state": "Pennsylvania",
        "reviews": "45",
        "working_hours": "{\"Monday\": \"9AM-8PM\", \"Tuesday\": \"9AM-8PM\", \"Wednesday\": \"9AM-8PM\", \"Thursday\": \"9AM-8PM\", \"Friday\": \"9AM-8PM\", \"Saturday\": \"9AM-5PM\", \"Sunday\": \"Closed\"}",
        "imported_at": "2025-08-23 16:58:34.414722+00",
        "dup_key": "farm wagon|east earl|pennsylvania",
        "quality_score": "95",
        "is_primary": "TRUE",
        "latitude": "40.1252897",
        "longitude": "-76.0520967",
        "coord": "0101000020E6100000B0AE658D550353C049032E7E09104440",
        "has upick": "",
        "upick offerings": "",
        "upick source": ""
      },
      {
        "id": "2329",
        "name": "Holland Farms",
        "site": "http://www.hollandfarmsonline.com/",
        "phone": "850-675-6876",
        "full_address": "2055 Homer Holland Rd, Milton, FL 32570",
        "street": "",
        "city": "",
        "postal_code": "",
        "state": "",
        "reviews": "862",
        "working_hours": "{\"Friday\":[\"9\u202fAM\u20135\u202fPM\"],\"Monday\":[\"9\u202fAM\u20135\u202fPM\"],\"Saturday\":[\"9\u202fAM\u20135\u202fPM\"],\"Sunday\":[\"Closed\"],\"Thursday\":[\"9\u202fAM\u20135\u202fPM\"],\"Tuesday\":[\"9\u202fAM\u20135\u202fPM\"],\"Wednesday\":[\"9\u202fAM\u20135\u202fPM\"]}",
        "imported_at": "2025-08-26 05:49:18.345127+00",
        "dup_key": "holland farms|+18506756876",
        "quality_score": "",
        "is_primary": "TRUE",
        "latitude": "30.835097",
        "longitude": "-87.112484",
        "coord": "0101000020E6100000B05417F032C755C0DBFCBFEAC8D53E40",
        "has upick": "",
        "upick offerings": "",
        "upick source": ""
      },
      {
        "id": "2107",
        "name": "Clear Spring Farm",
        "site": "http://www.clearspringfarmllc.com/",
        "phone": "610-258-5050",
        "full_address": "206 Richard Garr Rd, Easton, PA 18040",
        "street": "206 Richard Garr Rd",
        "city": "Easton",
        "postal_code": "18040",
        "state": "Pennsylvania",
        "reviews": "21",
        "working_hours": "{\"Monday\": \"10AM-6PM\", \"Tuesday\": \"10AM-6PM\", \"Wednesday\": \"10AM-6PM\", \"Thursday\": \"10AM-6PM\", \"Friday\": \"10AM-6PM\", \"Saturday\": \"10AM-6PM\", \"Sunday\": \"10AM-6PM\"}",
        "imported_at": "2025-08-23 16:58:34.816308+00",
        "dup_key": "clear spring farm|easton|pennsylvania",
        "quality_score": "91",
        "is_primary": "TRUE",
        "latitude": "40.7709886",
        "longitude": "-75.218241",
        "coord": "0101000020E61000005D6919A9F7CD52C05F4B23C1AF624440",
        "has upick": "",
        "upick offerings": "",
        "upick source": ""
      },
      {
        "id": "1639",
        "name": "SunBerry Orchard's Fruit Haven",
        "site": "http://sunberryorchardfarm.com/",
        "phone": "847-701-4010",
        "full_address": "2318 Greenwood Rd, Woodstock, IL 60098",
        "street": "2318 Greenwood Rd",
        "city": "Woodstock",
        "postal_code": "60098",
        "state": "Illinois",
        "reviews": "39",
        "working_hours": "",
        "imported_at": "2025-08-23 16:58:34.414722+00",
        "dup_key": "sunberry orchard's fruit haven|woodstock|illinois",
        "quality_score": "109",
        "is_primary": "TRUE",
        "latitude": "42.3608018",
        "longitude": "-88.3931042",
        "coord": "0101000020E6100000E5BA849E281956C041ABDDC02E2E4540",
        "has upick": "",
        "upick offerings": "",
        "upick source": ""
      },
      {
        "id": "1617",
        "name": "Hansel Hill Farm",
        "site": "http://hanselhillfarm.com/",
        "phone": "410-793-7208",
        "full_address": "1017 Hansel Dr, Millersville, MD 21108",
        "street": "1017 Hansel Dr",
        "city": "Millersville",
        "postal_code": "21108",
        "state": "Maryland",
        "reviews": "40",
        "working_hours": "",
        "imported_at": "2025-08-23 16:58:34.414722+00",
        "dup_key": "hansel hill farm|millersville|maryland",
        "quality_score": "110",
        "is_primary": "TRUE",
        "latitude": "39.0561338",
        "longitude": "-76.6524848",
        "coord": "0101000020E6100000C6489B4FC22953C0A09971642F874340",
        "has upick": "",
        "upick offerings": "",
        "upick source": ""
      },
      {
        "id": "1853",
        "name": "Duryea Farm",
        "site": "",
        "phone": "845-356-8494",
        "full_address": "101 Ackertown Rd, Monsey, NY 10952",
        "street": "101 Ackertown Rd",
        "city": "Monsey",
        "postal_code": "10952",
        "state": "New York",
        "reviews": "30",
        "working_hours": "",
        "imported_at": "2025-08-23 16:58:34.816308+00",
        "dup_key": "duryea farm|monsey|new york",
        "quality_score": "50",
        "is_primary": "TRUE",
        "latitude": "41.0836658",
        "longitude": "-74.0746137",
        "coord": "0101000020E610000059558A78C68452C09765998FB58A4440",
        "has upick": "",
        "upick offerings": "",
        "upick source": ""
      },
      {
        "id": "1993",
        "name": "Honeys Blueberry Farm",
        "site": "http://honeysblueberryfarm.com/",
        "phone": "865-816-9462",
        "full_address": "4333 Kingston Hwy, Loudon, TN 37774",
        "street": "4333 Kingston Hwy",
        "city": "Loudon",
        "postal_code": "37774",
        "state": "Tennessee",
        "reviews": "25",
        "working_hours": "",
        "imported_at": "2025-08-23 16:58:34.816308+00",
        "dup_key": "honeys blueberry farm|loudon|tennessee",
        "quality_score": "95",
        "is_primary": "TRUE",
        "latitude": "35.8387166",
        "longitude": "-84.3822735",
        "coord": "0101000020E61000002828452B771855C060CEC7105BEB4140",
        "has upick": "",
        "upick offerings": "",
        "upick source": ""
      },
      {
        "id": "2138",
        "name": "Twin Oak Farms",
        "site": "http://www.twinoakfarmsmd.com/",
        "phone": "443-235-0203",
        "full_address": "1128 Snow Hill Rd, Stockton, MD 21864",
        "street": "1128 Snow Hill Rd",
        "city": "Stockton",
        "postal_code": "21864",
        "state": "Maryland",
        "reviews": "21",
        "working_hours": "{\"Monday\": \"10AM-6PM\", \"Tuesday\": \"Closed\", \"Wednesday\": \"10AM-6PM\", \"Thursday\": \"10AM-6PM\", \"Friday\": \"10AM-6PM\", \"Saturday\": \"10AM-6PM\", \"Sunday\": \"10AM-5PM\"}",
        "imported_at": "2025-08-23 16:58:34.816308+00",
        "dup_key": "twin oak farms|stockton|maryland",
        "quality_score": "91",
        "is_primary": "TRUE",
        "latitude": "38.0433807",
        "longitude": "-75.4104614",
        "coord": "0101000020E61000004E51E4FF44DA52C088E3AF7F8D054340",
        "has upick": "",
        "upick offerings": "",
        "upick source": ""
      },
      {
        "id": "2308",
        "name": "Great Scott Farms",
        "site": "http://visitgreatscott.com/",
        "phone": "352-383-1792",
        "full_address": "26216 County Rd 448A, Mt Dora, FL 32757",
        "street": "",
        "city": "",
        "postal_code": "",
        "state": "",
        "reviews": "149",
        "working_hours": "{}",
        "imported_at": "2025-08-26 05:49:18.345127+00",
        "dup_key": "great scott farms|+13523831792",
        "quality_score": "",
        "is_primary": "TRUE",
        "latitude": "28.728592",
        "longitude": "-81.668398",
        "coord": "0101000020E61000008EAD6708C76A54C092205C0185BA3C40",
        "has upick": "",
        "upick offerings": "",
        "upick source": ""
      },
      {
        "id": "2165",
        "name": "Lewis Educational Agricultural Farm (The LEAF)",
        "site": "http://leafct.com/",
        "phone": "860-919-6127",
        "full_address": "65 Blueberry Ln, Southington, CT 06489",
        "street": "65 Blueberry Ln",
        "city": "Southington",
        "postal_code": "6489",
        "state": "Connecticut",
        "reviews": "20",
        "working_hours": "{\"Monday\": \"9AM-5PM\", \"Tuesday\": \"9AM-5PM\", \"Wednesday\": \"9AM-5PM\", \"Thursday\": \"9AM-5PM\", \"Friday\": \"9AM-5PM\", \"Saturday\": \"9AM-12PM\", \"Sunday\": \"Closed\"}",
        "imported_at": "2025-08-23 16:58:34.816308+00",
        "dup_key": "lewis educational agricultural farm (the leaf)|southington|connecticut",
        "quality_score": "90",
        "is_primary": "TRUE",
        "latitude": "41.5846587",
        "longitude": "-72.8670613",
        "coord": "0101000020E610000025C8ADEE7D3752C033E9A518D6CA4440",
        "has upick": "",
        "upick offerings": "",
        "upick source": ""
      }
    ],
    "count": 20,
    "status": "assigned",
    "assigned_at": "2025-09-07T04:30:45.560378"
  },
  "agent_9": {
    "farms": [
      {
        "id": "1442",
        "name": "Dirty Girl Farm",
        "site": "https://www.dirtygirlfarmandesny.com/",
        "phone": "845-676-4000",
        "full_address": "114 Delaware Ave, Andes, NY 13731",
        "street": "114 Delaware Ave",
        "city": "Andes",
        "postal_code": "13731",
        "state": "New York",
        "reviews": "51",
        "working_hours": "{\"Monday\": \"Open 24 hours\", \"Tuesday\": \"Open 24 hours\", \"Wednesday\": \"Open 24 hours\", \"Thursday\": \"Open 24 hours\", \"Friday\": \"Open 24 hours\", \"Saturday\": \"Open 24 hours\", \"Sunday\": \"Open 24 hours\"}",
        "imported_at": "2025-08-23 16:58:34.414722+00",
        "dup_key": "dirty girl farm|andes|new york",
        "quality_score": "121",
        "is_primary": "TRUE",
        "latitude": "42.1910466",
        "longitude": "-74.7867772",
        "coord": "0101000020E610000043CFC18E5AB252C08A81093774184540",
        "has upick": "",
        "upick offerings": "",
        "upick source": ""
      },
      {
        "id": "1718",
        "name": "Lyrenes Blueberry Farm",
        "site": "https://www.facebook.com/lyrenefarm",
        "phone": "251-752-1842",
        "full_address": "11911A Alabama, AL-104, Fairhope, AL 36532",
        "street": "11911A Alabama, AL-104",
        "city": "Fairhope",
        "postal_code": "36532",
        "state": "AL",
        "reviews": "36",
        "working_hours": "",
        "imported_at": "2025-08-23 16:58:34.414722+00",
        "dup_key": "lyrenes blueberry farm|fairhope|al",
        "quality_score": "106",
        "is_primary": "TRUE",
        "latitude": "30.5459692",
        "longitude": "-87.8189338",
        "coord": "0101000020E6100000B225506969F455C08F9F32A3C48B3E40",
        "has upick": "",
        "upick offerings": "",
        "upick source": ""
      },
      {
        "id": "1668",
        "name": "Rhynard Blueberry Farm",
        "site": "http://www.rhynardsblueberryfarm.com/",
        "phone": "989-828-6954",
        "full_address": "4701 Chippewa, Shepherd, MI 48883",
        "street": "4701 Chippewa",
        "city": "Shepherd",
        "postal_code": "48883",
        "state": "Michigan",
        "reviews": "38",
        "working_hours": "",
        "imported_at": "2025-08-23 16:58:34.414722+00",
        "dup_key": "rhynard blueberry farm|shepherd|michigan",
        "quality_score": "108",
        "is_primary": "TRUE",
        "latitude": "43.5723177",
        "longitude": "-84.6276511",
        "coord": "0101000020E610000019F3846F2B2855C00236D6B441C94540",
        "has upick": "",
        "upick offerings": "",
        "upick source": ""
      },
      {
        "id": "1321",
        "name": "Keep Growing Detroit Farm",
        "site": "http://detroitagriculture.net/",
        "phone": "313-656-4769",
        "full_address": "3100 Orleans St, Detroit, MI 48207",
        "street": "3100 Orleans St",
        "city": "Detroit",
        "postal_code": "48207",
        "state": "Michigan",
        "reviews": "60",
        "working_hours": "{\"Monday\": \"Closed\", \"Tuesday\": \"5-7PM\", \"Wednesday\": \"Closed\", \"Thursday\": \"5-7PM\", \"Friday\": \"Closed\", \"Saturday\": \"Closed\", \"Sunday\": \"Closed\"}",
        "imported_at": "2025-08-23 16:58:33.980573+00",
        "dup_key": "keep growing detroit farm|detroit|michigan",
        "quality_score": "130",
        "is_primary": "TRUE",
        "latitude": "42.3509805",
        "longitude": "-83.0395217",
        "coord": "0101000020E6100000DE3E068687C254C05384D4EDEC2C4540",
        "has upick": "",
        "upick offerings": "",
        "upick source": ""
      },
      {
        "id": "1914",
        "name": "Brook Hill Farm",
        "site": "",
        "phone": "",
        "full_address": "207 Ideuma Rd, Unadilla, NY 13849",
        "street": "207 Ideuma Rd",
        "city": "Unadilla",
        "postal_code": "13849",
        "state": "New York",
        "reviews": "27",
        "working_hours": "{\"Monday\": \"7AM-11PM\", \"Tuesday\": \"7AM-11PM\", \"Wednesday\": \"7AM-11PM\", \"Thursday\": \"7AM-11PM\", \"Friday\": \"7AM-11PM\", \"Saturday\": \"7AM-11PM\", \"Sunday\": \"7AM-11PM\"}",
        "imported_at": "2025-08-23 16:58:34.816308+00",
        "dup_key": "brook hill farm|unadilla|new york",
        "quality_score": "27",
        "is_primary": "TRUE",
        "latitude": "42.3713022",
        "longitude": "-75.3424254",
        "coord": "0101000020E61000007694394CEAD552C068F79AD4862F4540",
        "has upick": "",
        "upick offerings": "",
        "upick source": ""
      },
      {
        "id": "1040",
        "name": "Ahavah Farm",
        "site": "http://www.ahavahfarm.com/",
        "phone": "719-233-7828",
        "full_address": "7545 N Log Rd, Peyton, CO 80831",
        "street": "7545 N Log Rd",
        "city": "Peyton",
        "postal_code": "80831",
        "state": "Colorado",
        "reviews": "88",
        "working_hours": "{\"Sunday\": \"12-4PM\", \"Monday\": \"Closed\", \"Tuesday\": \"Closed\", \"Wednesday\": \"Closed\", \"Thursday\": \"Closed\", \"Friday\": \"Closed\", \"Saturday\": \"Closed\"}",
        "imported_at": "2025-08-23 16:58:33.980573+00",
        "dup_key": "ahavah farm|peyton|colorado",
        "quality_score": "158",
        "is_primary": "TRUE",
        "latitude": "38.9406544",
        "longitude": "-104.4232534",
        "coord": "0101000020E6100000EEBA6D95161B5AC0546B065D67784340",
        "has upick": "",
        "upick offerings": "",
        "upick source": ""
      },
      {
        "id": "2463",
        "name": "Tropical Acres Farms, Inc - Mangoes, Avocados, Sapodillas & Mangos Trees",
        "site": "http://www.tropicalacresfarms.com/",
        "phone": "561-329-6066",
        "full_address": "1010 Camellia Rd, West Palm Beach, FL 33405",
        "street": "",
        "city": "",
        "postal_code": "",
        "state": "",
        "reviews": "206",
        "working_hours": "{\"Friday\":[\"Closed\"],\"Monday\":[\"3\u20136\u202fPM\"],\"Saturday\":[\"Closed\"],\"Sunday\":[\"Closed\"],\"Thursday\":[\"Closed\"],\"Tuesday\":[\"3\u20136\u202fPM\"],\"Wednesday\":[\"3\u20136\u202fPM\"]}",
        "imported_at": "2025-08-26 05:49:18.345127+00",
        "dup_key": "tropical acres farms, inc - mangoes, avocados, sapodillas & mangos trees|+15613296066",
        "quality_score": "",
        "is_primary": "TRUE",
        "latitude": "26.671996",
        "longitude": "-80.066264",
        "coord": "0101000020E6100000BD395CAB3D0454C0F60A0BEE07AC3A40",
        "has upick": "",
        "upick offerings": "",
        "upick source": ""
      },
      {
        "id": "2389",
        "name": "Pappy's Patch",
        "site": "https://www.facebook.com/pappysstrawberries/",
        "phone": "",
        "full_address": "501 Florida Ave, Oviedo, FL 32765",
        "street": "",
        "city": "",
        "postal_code": "",
        "state": "",
        "reviews": "241",
        "working_hours": "{}",
        "imported_at": "2025-08-26 05:49:18.345127+00",
        "dup_key": "pappy's patch|",
        "quality_score": "",
        "is_primary": "TRUE",
        "latitude": "28.692632",
        "longitude": "-81.204556",
        "coord": "0101000020E6100000D68C0C72174D54C0BF29AC5450B13C40",
        "has upick": "",
        "upick offerings": "",
        "upick source": ""
      },
      {
        "id": "1680",
        "name": "Mariner Farms Llc",
        "site": "https://www.marinerfarmsllc.com/",
        "phone": "610-350-1237",
        "full_address": "1594 Broad Run Rd, Downingtown, PA 19335",
        "street": "1594 Broad Run Rd",
        "city": "Downingtown",
        "postal_code": "19335",
        "state": "Pennsylvania",
        "reviews": "37",
        "working_hours": "{\"Monday\": \"Closed\", \"Tuesday\": \"Closed\", \"Wednesday\": \"9AM-1PM\", \"Thursday\": \"Closed\", \"Friday\": \"Closed\", \"Saturday\": \"8AM-5PM\", \"Sunday\": \"8AM-5PM\"}",
        "imported_at": "2025-08-23 16:58:34.414722+00",
        "dup_key": "mariner farms llc|downingtown|pennsylvania",
        "quality_score": "107",
        "is_primary": "TRUE",
        "latitude": "39.9810163",
        "longitude": "-75.7500725",
        "coord": "0101000020E61000004148163001F052C0E5AB2EF191FD4340",
        "has upick": "",
        "upick offerings": "",
        "upick source": ""
      },
      {
        "id": "2464",
        "name": "Tropical Village Farm",
        "site": "",
        "phone": "786-410-5960",
        "full_address": "22601 SW 177th Ave, Miami, FL 33170",
        "street": "",
        "city": "",
        "postal_code": "",
        "state": "",
        "reviews": "430",
        "working_hours": "{\"Friday\":[\"9\u202fAM\u20136\u202fPM\"],\"Monday\":[\"9\u202fAM\u20136\u202fPM\"],\"Saturday\":[\"9\u202fAM\u20136\u202fPM\"],\"Sunday\":[\"9\u202fAM\u20136\u202fPM\"],\"Thursday\":[\"9\u202fAM\u20136\u202fPM\"],\"Tuesday\":[\"9\u202fAM\u20136\u202fPM\"],\"Wednesday\":[\"9\u202fAM\u20136\u202fPM\"]}",
        "imported_at": "2025-08-26 05:49:18.345127+00",
        "dup_key": "tropical village farm|+17864105960",
        "quality_score": "",
        "is_primary": "TRUE",
        "latitude": "25.556398",
        "longitude": "-80.477684",
        "coord": "0101000020E6100000A374E95F921E54C0508F6D19708E3940",
        "has upick": "",
        "upick offerings": "",
        "upick source": ""
      },
      {
        "id": "960",
        "name": "Pick A Chick Store",
        "site": "https://pickachickfarm.com/",
        "phone": "914-424-4040",
        "full_address": "2120 Crompond Rd, Cortlandt, NY 10567",
        "street": "2120 Crompond Rd",
        "city": "Cortlandt",
        "postal_code": "10567",
        "state": "New York",
        "reviews": "101",
        "working_hours": "{\"Monday\": \"10AM-7PM\", \"Tuesday\": \"10AM-7PM\", \"Wednesday\": \"10AM-7PM\", \"Thursday\": \"10AM-7PM\", \"Friday\": \"10AM-7PM\", \"Saturday\": \"10AM-7PM\", \"Sunday\": \"10AM-7PM\"}",
        "imported_at": "2025-08-23 16:58:33.580418+00",
        "dup_key": "pick a chick store|cortlandt|new york",
        "quality_score": "171",
        "is_primary": "TRUE",
        "latitude": "41.2925355",
        "longitude": "-73.8803368",
        "coord": "0101000020E6100000C75D2970577852C0A2B5A2CD71A54440",
        "has upick": "",
        "upick offerings": "",
        "upick source": ""
      },
      {
        "id": "1335",
        "name": "Rocky Top Fruit Farm",
        "site": "https://rockytopfruit.com/",
        "phone": "801-465-4408",
        "full_address": "8648 S 6200 W, Payson, UT 84651",
        "street": "8648 S 6200 W",
        "city": "Payson",
        "postal_code": "84651",
        "state": "Utah",
        "reviews": "59",
        "working_hours": "{\"Sunday\": \"Closed\", \"Monday\": \"9AM-1PM,5-8PM\", \"Tuesday\": \"Closed\", \"Wednesday\": \"9AM-1PM,5-8PM\", \"Thursday\": \"9AM-1PM,5-8PM\", \"Friday\": \"9AM-1PM,5-8PM\", \"Saturday\": \"9AM-2PM\"}",
        "imported_at": "2025-08-23 16:58:33.980573+00",
        "dup_key": "rocky top fruit farm|payson|utah",
        "quality_score": "129",
        "is_primary": "TRUE",
        "latitude": "40.0738066",
        "longitude": "-111.8007551",
        "coord": "0101000020E6100000BCA651923FF35BC04E9DA27E72094440",
        "has upick": "",
        "upick offerings": "",
        "upick source": ""
      },
      {
        "id": "1310",
        "name": "Doyle's Farm",
        "site": "https://doylesfarm.com/",
        "phone": "908-824-2479",
        "full_address": "806 US-202, Neshanic Station, NJ 08853",
        "street": "806 US-202",
        "city": "Neshanic Station",
        "postal_code": "8853",
        "state": "New Jersey",
        "reviews": "61",
        "working_hours": "{\"Monday\": \"10AM-6PM\", \"Tuesday\": \"10AM-6PM\", \"Wednesday\": \"10AM-6PM\", \"Thursday\": \"10AM-6PM\", \"Friday\": \"10AM-6PM\", \"Saturday\": \"10AM-6PM\", \"Sunday\": \"10AM-4PM\"}",
        "imported_at": "2025-08-23 16:58:33.980573+00",
        "dup_key": "doyle's farm|neshanic station|new jersey",
        "quality_score": "131",
        "is_primary": "TRUE",
        "latitude": "40.5317206",
        "longitude": "-74.7733428",
        "coord": "0101000020E610000036A6CC727EB152C004CEAD6B0F444440",
        "has upick": "",
        "upick offerings": "",
        "upick source": ""
      },
      {
        "id": "1677",
        "name": "Sweet Life Farms",
        "site": "https://www.sweetlifefarms.com/",
        "phone": "813-757-9600",
        "full_address": "203 E Terrace Dr, Plant City, FL 33563",
        "street": "203 E Terrace Dr",
        "city": "Plant City",
        "postal_code": "33563",
        "state": "Florida",
        "reviews": "37",
        "working_hours": "",
        "imported_at": "2025-08-23 16:58:34.414722+00",
        "dup_key": "sweet life farms|plant city|florida",
        "quality_score": "107",
        "is_primary": "TRUE",
        "latitude": "28.0396657",
        "longitude": "-82.1244597",
        "coord": "0101000020E6100000E14AD125F78754C0E0450488270A3C40",
        "has upick": "",
        "upick offerings": "",
        "upick source": ""
      },
      {
        "id": "1328",
        "name": "Walking Bird Farm",
        "site": "http://www.walkingbirdfarm.com/",
        "phone": "609-808-4420",
        "full_address": "250 S Mannheim Ave, Egg Harbor City, NJ 08215",
        "street": "250 S Mannheim Ave",
        "city": "Egg Harbor City",
        "postal_code": "8215",
        "state": "New Jersey",
        "reviews": "59",
        "working_hours": "{\"Monday\": \"Closed\", \"Tuesday\": \"Closed\", \"Wednesday\": \"Closed\", \"Thursday\": \"10AM-5PM\", \"Friday\": \"10AM-5PM\", \"Saturday\": \"10AM-2PM\", \"Sunday\": \"Closed\"}",
        "imported_at": "2025-08-23 16:58:33.980573+00",
        "dup_key": "walking bird farm|egg harbor city|new jersey",
        "quality_score": "129",
        "is_primary": "TRUE",
        "latitude": "39.501708",
        "longitude": "-74.574461",
        "coord": "0101000020E6100000F5F411F8C3A452C01F12BEF737C04340",
        "has upick": "",
        "upick offerings": "",
        "upick source": ""
      },
      {
        "id": "1202",
        "name": "Walnut Creek Farm Texas",
        "site": "https://www.walnutcreekfarmtexas.com/",
        "phone": "817-783-7864",
        "full_address": "6521 Asher Rd, Alvarado, TX 76009",
        "street": "6521 Asher Rd",
        "city": "Alvarado",
        "postal_code": "76009",
        "state": "Texas",
        "reviews": "69",
        "working_hours": "",
        "imported_at": "2025-08-23 16:58:33.980573+00",
        "dup_key": "walnut creek farm texas|alvarado|texas",
        "quality_score": "139",
        "is_primary": "TRUE",
        "latitude": "32.4473128",
        "longitude": "-97.2410603",
        "coord": "0101000020E61000004B372E886D4F58C0858ABB8B41394040",
        "has upick": "",
        "upick offerings": "",
        "upick source": ""
      },
      {
        "id": "1894",
        "name": "Kreider Farms - Farm Shop",
        "site": "https://www.kreiderfarms.com/",
        "phone": "717-665-5454",
        "full_address": "453 S Penryn Rd, Manheim, PA 17545",
        "street": "453 S Penryn Rd",
        "city": "Manheim",
        "postal_code": "17545",
        "state": "Pennsylvania",
        "reviews": "28",
        "working_hours": "",
        "imported_at": "2025-08-23 16:58:34.816308+00",
        "dup_key": "kreider farms - farm shop|manheim|pennsylvania",
        "quality_score": "98",
        "is_primary": "TRUE",
        "latitude": "40.1649883",
        "longitude": "-76.3667393",
        "coord": "0101000020E61000001BEA1CA8781753C07F5C2C561E154440",
        "has upick": "",
        "upick offerings": "",
        "upick source": ""
      },
      {
        "id": "2300",
        "name": "Gamble Creek Farms",
        "site": "https://www.gamblecreekfarms.com/",
        "phone": "941-900-4234",
        "full_address": "14950 Golf Course Rd, Parrish, FL 34219",
        "street": "",
        "city": "",
        "postal_code": "",
        "state": "",
        "reviews": "103",
        "working_hours": "{\"Friday\":[\"10\u202fAM\u20135\u202fPM\"],\"Monday\":[\"10\u202fAM\u20135\u202fPM\"],\"Saturday\":[\"10\u202fAM\u20135\u202fPM\"],\"Sunday\":[\"10\u202fAM\u20135\u202fPM\"],\"Thursday\":[\"10\u202fAM\u20135\u202fPM\"],\"Tuesday\":[\"10\u202fAM\u20135\u202fPM\"],\"Wednesday\":[\"10\u202fAM\u20135\u202fPM\"]}",
        "imported_at": "2025-08-26 05:49:18.345127+00",
        "dup_key": "gamble creek farms|+19419004234",
        "quality_score": "",
        "is_primary": "TRUE",
        "latitude": "27.554188",
        "longitude": "-82.391106",
        "coord": "0101000020E61000003DD175E1079954C0EDD5C743DF8D3B40",
        "has upick": "",
        "upick offerings": "",
        "upick source": ""
      },
      {
        "id": "1697",
        "name": "Spooner Berry Farms Blueberry U-Pick",
        "site": "https://spoonerberryfarms.com/",
        "phone": "360-456-4554",
        "full_address": "10447 Yelm Hwy SE, Olympia, WA 98513",
        "street": "10447 Yelm Hwy SE",
        "city": "Olympia",
        "postal_code": "98513",
        "state": "Washington",
        "reviews": "36",
        "working_hours": "{\"Sunday\": \"9AM-6PM\", \"Monday\": \"9AM-6PM\", \"Tuesday\": \"9AM-6PM\", \"Wednesday\": \"9AM-6PM\", \"Thursday\": \"9AM-6PM\", \"Friday\": \"9AM-6PM\", \"Saturday\": \"9AM-6PM\"}",
        "imported_at": "2025-08-23 16:58:34.414722+00",
        "dup_key": "spooner berry farms blueberry u-pick|olympia|washington",
        "quality_score": "106",
        "is_primary": "TRUE",
        "latitude": "46.9869198",
        "longitude": "-122.7112022",
        "coord": "0101000020E6100000F8753B5684AD5EC02F635463537E4740",
        "has upick": "",
        "upick offerings": "",
        "upick source": ""
      },
      {
        "id": "1785",
        "name": "Sleights Berry Farm Inc",
        "site": "https://upickfarmsusa.com/or/clackamas-county/sleights-berry-farm/",
        "phone": "503-632-3294",
        "full_address": "19223 S Windy City Rd, Mulino, OR 97042",
        "street": "19223 S Windy City Rd",
        "city": "Mulino",
        "postal_code": "97042",
        "state": "Oregon",
        "reviews": "33",
        "working_hours": "",
        "imported_at": "2025-08-23 16:58:34.414722+00",
        "dup_key": "sleights berry farm inc|mulino|oregon",
        "quality_score": "103",
        "is_primary": "TRUE",
        "latitude": "45.2155211",
        "longitude": "-122.4742907",
        "coord": "0101000020E6100000015361C75A9E5EC0890C0632969B4640",
        "has upick": "",
        "upick offerings": "",
        "upick source": ""
      }
    ],
    "count": 20,
    "status": "assigned",
    "assigned_at": "2025-09-07T04:30:45.560379"
  },
  "agent_10": {
    "farms": [
      {
        "id": "2236",
        "name": "Branchton Farms Produce",
        "site": "https://branchtonfarmsproduce.company.site/",
        "phone": "813-324-8933",
        "full_address": "15320 Morris Bridge Rd #2234, Thonotosassa, FL 33592",
        "street": "",
        "city": "",
        "postal_code": "",
        "state": "",
        "reviews": "141",
        "working_hours": "{\"Friday\":[\"10\u202fAM\u20134\u202fPM\"],\"Monday\":[\"Closed\"],\"Saturday\":[\"10\u202fAM\u20134\u202fPM\"],\"Sunday\":[\"10\u202fAM\u20134\u202fPM\"],\"Thursday\":[\"10\u202fAM\u20134\u202fPM\"],\"Tuesday\":[\"Closed\"],\"Wednesday\":[\"Closed\"]}",
        "imported_at": "2025-08-26 05:49:18.345127+00",
        "dup_key": "branchton farms produce|+18133248933",
        "quality_score": "",
        "is_primary": "TRUE",
        "latitude": "28.137731",
        "longitude": "-82.285263",
        "coord": "0101000020E610000091F0BDBF419254C037A5BC5642233C40",
        "has upick": "",
        "upick offerings": "",
        "upick source": ""
      },
      {
        "id": "1645",
        "name": "Story Hill Farm",
        "site": "https://www.storyhillmoos.com/",
        "phone": "302-725-8200",
        "full_address": "34645 Winding Rd, Frankford, DE 19945",
        "street": "34645 Winding Rd",
        "city": "Frankford",
        "postal_code": "19945",
        "state": "Delaware",
        "reviews": "39",
        "working_hours": "{\"Monday\": \"Closed\", \"Tuesday\": \"Closed\", \"Wednesday\": \"9AM-5PM\", \"Thursday\": \"9AM-5PM\", \"Friday\": \"9AM-5PM\", \"Saturday\": \"9AM-5PM\", \"Sunday\": \"9AM-5PM\"}",
        "imported_at": "2025-08-23 16:58:34.414722+00",
        "dup_key": "story hill farm|frankford|delaware",
        "quality_score": "109",
        "is_primary": "TRUE",
        "latitude": "38.516264",
        "longitude": "-75.166714",
        "coord": "0101000020E610000043723271ABCA52C0130D52F014424340",
        "has upick": "",
        "upick offerings": "",
        "upick source": ""
      },
      {
        "id": "1467",
        "name": "Rettig Farms",
        "site": "",
        "phone": "970-434-8470",
        "full_address": "275 32 Rd, Grand Junction, CO 81503",
        "street": "275 32 Rd",
        "city": "Grand Junction",
        "postal_code": "81503",
        "state": "Colorado",
        "reviews": "49",
        "working_hours": "{\"Sunday\": \"8AM-5PM\", \"Monday\": \"8AM-5PM\", \"Tuesday\": \"8AM-5PM\", \"Wednesday\": \"8AM-5PM\", \"Thursday\": \"8AM-5PM\", \"Friday\": \"8AM-5PM\", \"Saturday\": \"8AM-5PM\"}",
        "imported_at": "2025-08-23 16:58:34.414722+00",
        "dup_key": "rettig farms|grand junction|colorado",
        "quality_score": "69",
        "is_primary": "TRUE",
        "latitude": "39.045531",
        "longitude": "-108.4620716",
        "coord": "0101000020E6100000449AC294921D5BC022FAB5F5D3854340",
        "has upick": "",
        "upick offerings": "",
        "upick source": ""
      },
      {
        "id": "2426",
        "name": "South Naples Citrus Grove",
        "site": "http://www.naplescitrus.com/",
        "phone": "239-774-3838",
        "full_address": "341 Sabal Palm Rd, Naples, FL 34114",
        "street": "",
        "city": "",
        "postal_code": "",
        "state": "",
        "reviews": "326",
        "working_hours": "{}",
        "imported_at": "2025-08-26 05:49:18.345127+00",
        "dup_key": "south naples citrus grove|+12397743838",
        "quality_score": "",
        "is_primary": "TRUE",
        "latitude": "26.095036",
        "longitude": "-81.663424",
        "coord": "0101000020E61000006BD8EF89756A54C052F17F4754183A40",
        "has upick": "",
        "upick offerings": "",
        "upick source": ""
      },
      {
        "id": "2437",
        "name": "Sweet Orchard",
        "site": "https://www.sweetorchard.com/",
        "phone": "407-307-3070",
        "full_address": "1855 flying Hawk Cv, Chuluota, FL 32766",
        "street": "",
        "city": "",
        "postal_code": "",
        "state": "",
        "reviews": "19",
        "working_hours": "{\"Friday\":[\"9\u202fAM\u20134\u202fPM\"],\"Monday\":[\"9\u202fAM\u20134\u202fPM\"],\"Saturday\":[\"Closed\"],\"Sunday\":[\"Closed\"],\"Thursday\":[\"9\u202fAM\u20134\u202fPM\"],\"Tuesday\":[\"9\u202fAM\u20134\u202fPM\"],\"Wednesday\":[\"9\u202fAM\u20134\u202fPM\"]}",
        "imported_at": "2025-08-26 05:49:18.345127+00",
        "dup_key": "sweet orchard|+14073073070",
        "quality_score": "",
        "is_primary": "TRUE",
        "latitude": "28.626968",
        "longitude": "-81.123273",
        "coord": "0101000020E6100000B5DE6FB4E34754C077A38FF980A03C40",
        "has upick": "",
        "upick offerings": "",
        "upick source": ""
      },
      {
        "id": "2209",
        "name": "Aunt Zelma's Blueberries",
        "site": "http://www.auntzelmasblueberries.com/contact/",
        "phone": "352-317-6110",
        "full_address": "200 E New England Ave #300, Winter Park, FL 32789",
        "street": "",
        "city": "",
        "postal_code": "",
        "state": "",
        "reviews": "3",
        "working_hours": "{}",
        "imported_at": "2025-08-26 05:49:18.345127+00",
        "dup_key": "aunt zelma's blueberries|+13523176110",
        "quality_score": "",
        "is_primary": "TRUE",
        "latitude": "28.595737",
        "longitude": "-81.34961",
        "coord": "0101000020E6100000B1169F02605654C06404543882983C40",
        "has upick": "",
        "upick offerings": "",
        "upick source": ""
      },
      {
        "id": "1707",
        "name": "Sweet Roots Farm LLC (Charlotte Berry Farm)",
        "site": "http://www.sweetrootsvt.com/",
        "phone": "802-425-3652",
        "full_address": "4702 Ethan Allen Hwy, Charlotte, VT 05445",
        "street": "4702 Ethan Allen Hwy",
        "city": "Charlotte",
        "postal_code": "5445",
        "state": "Vermont",
        "reviews": "36",
        "working_hours": "{\"Monday\": \"9AM-6PM\", \"Tuesday\": \"9AM-6PM\", \"Wednesday\": \"9AM-6PM\", \"Thursday\": \"9AM-6PM\", \"Friday\": \"9AM-6PM\", \"Saturday\": \"9AM-6PM\", \"Sunday\": \"9AM-6PM\"}",
        "imported_at": "2025-08-23 16:58:34.414722+00",
        "dup_key": "sweet roots farm llc (charlotte berry farm)|charlotte|vermont",
        "quality_score": "106",
        "is_primary": "TRUE",
        "latitude": "44.2894266",
        "longitude": "-73.2420102",
        "coord": "0101000020E6100000199359187D4F52C0D6CB4AEE0B254640",
        "has upick": "",
        "upick offerings": "",
        "upick source": ""
      },
      {
        "id": "2071",
        "name": "U-Pick Strawberries",
        "site": "https://www.facebook.com/Obermillers-Strawberry-Farm-103833226386456/",
        "phone": "828-891-8841",
        "full_address": "621 Allstar Ln, Hendersonville, NC 28739",
        "street": "621 Allstar Ln",
        "city": "Hendersonville",
        "postal_code": "28739",
        "state": "North Carolina",
        "reviews": "22",
        "working_hours": "{\"Monday\": \"4-6:30PM\", \"Tuesday\": \"4-6:30PM\", \"Wednesday\": \"Closed\", \"Thursday\": \"8:30AM-12PM\", \"Friday\": \"Closed\", \"Saturday\": \"8:30AM-12PM\", \"Sunday\": \"Closed\"}",
        "imported_at": "2025-08-23 16:58:34.816308+00",
        "dup_key": "u-pick strawberries|hendersonville|north carolina",
        "quality_score": "92",
        "is_primary": "TRUE",
        "latitude": "35.3381029",
        "longitude": "-82.538954",
        "coord": "0101000020E61000001803EB387EA254C06517B1F446AB4140",
        "has upick": "",
        "upick offerings": "",
        "upick source": ""
      },
      {
        "id": "1595",
        "name": "River City Farms",
        "site": "",
        "phone": "",
        "full_address": "7928 W Stoll Rd, Grand Ledge, MI 48837",
        "street": "7928 W Stoll Rd",
        "city": "Grand Ledge",
        "postal_code": "48837",
        "state": "Michigan",
        "reviews": "41",
        "working_hours": "{\"Monday\": \"8AM-8PM\", \"Tuesday\": \"8AM-8PM\", \"Wednesday\": \"8AM-8PM\", \"Thursday\": \"8AM-8PM\", \"Friday\": \"8AM-8PM\", \"Saturday\": \"8AM-8PM\", \"Sunday\": \"8AM-8PM\"}",
        "imported_at": "2025-08-23 16:58:34.414722+00",
        "dup_key": "river city farms|grand ledge|michigan",
        "quality_score": "41",
        "is_primary": "TRUE",
        "latitude": "42.7992401",
        "longitude": "-84.6806488",
        "coord": "0101000020E6100000F203FCBF8F2B55C06D93E57F4D664540",
        "has upick": "",
        "upick offerings": "",
        "upick source": ""
      },
      {
        "id": "1385",
        "name": "Derrick Farms",
        "site": "",
        "phone": "508-882-5591",
        "full_address": "301 Sanders Rd, Oakham, MA 01068",
        "street": "301 Sanders Rd",
        "city": "Oakham",
        "postal_code": "1068",
        "state": "Massachusetts",
        "reviews": "55",
        "working_hours": "",
        "imported_at": "2025-08-23 16:58:33.980573+00",
        "dup_key": "derrick farms|oakham|massachusetts",
        "quality_score": "75",
        "is_primary": "TRUE",
        "latitude": "42.3246343",
        "longitude": "-72.034092",
        "coord": "0101000020E6100000894336902E0252C076D4E29D8D294540",
        "has upick": "",
        "upick offerings": "",
        "upick source": ""
      },
      {
        "id": "2123",
        "name": "Cloudview Farm",
        "site": "http://cloudviewfarm.org/",
        "phone": "",
        "full_address": "17305 Frey Rd, Ephrata, WA 98823",
        "street": "17305 Frey Rd",
        "city": "Ephrata",
        "postal_code": "98823",
        "state": "Washington",
        "reviews": "21",
        "working_hours": "{\"Sunday\": \"Closed\", \"Monday\": \"Closed\", \"Tuesday\": \"Closed\", \"Wednesday\": \"Closed\", \"Thursday\": \"Closed\", \"Friday\": \"Closed\", \"Saturday\": \"9AM-3PM\"}",
        "imported_at": "2025-08-23 16:58:34.816308+00",
        "dup_key": "cloudview farm|ephrata|washington",
        "quality_score": "71",
        "is_primary": "TRUE",
        "latitude": "47.3445205",
        "longitude": "-119.5452107",
        "coord": "0101000020E6100000797B6BBBE4E25DC098266C3F19AC4740",
        "has upick": "",
        "upick offerings": "",
        "upick source": ""
      },
      {
        "id": "1949",
        "name": "Klim's Orchard",
        "site": "",
        "phone": "570-698-6981",
        "full_address": "481 Keystone Rd, Lake Ariel, PA 18436",
        "street": "481 Keystone Rd",
        "city": "Lake Ariel",
        "postal_code": "18436",
        "state": "Pennsylvania",
        "reviews": "26",
        "working_hours": "{\"Monday\": \"Closed\", \"Tuesday\": \"Closed\", \"Wednesday\": \"Closed\", \"Thursday\": \"Closed\", \"Friday\": \"11AM-5PM\", \"Saturday\": \"11AM-5PM\", \"Sunday\": \"11AM-5PM\"}",
        "imported_at": "2025-08-23 16:58:34.816308+00",
        "dup_key": "klim's orchard|lake ariel|pennsylvania",
        "quality_score": "46",
        "is_primary": "TRUE",
        "latitude": "41.4686137",
        "longitude": "-75.4169089",
        "coord": "0101000020E610000053BAAAA2AEDA52C091FAA188FBBB4440",
        "has upick": "",
        "upick offerings": "",
        "upick source": ""
      },
      {
        "id": "2108",
        "name": "Berry Creek Farm",
        "site": "http://www.berrycreekfarmvt.com/",
        "phone": "802-744-2406",
        "full_address": "1342 Vermont Rte 100, Westfield, VT 05874",
        "street": "1342 Vermont Rte 100",
        "city": "Westfield",
        "postal_code": "5874",
        "state": "Vermont",
        "reviews": "21",
        "working_hours": "{\"Monday\": \"9AM-6PM\", \"Tuesday\": \"9AM-6PM\", \"Wednesday\": \"9AM-6PM\", \"Thursday\": \"9AM-6PM\", \"Friday\": \"9AM-6PM\", \"Saturday\": \"9AM-5PM\", \"Sunday\": \"Closed\"}",
        "imported_at": "2025-08-23 16:58:34.816308+00",
        "dup_key": "berry creek farm|westfield|vermont",
        "quality_score": "91",
        "is_primary": "TRUE",
        "latitude": "44.8865766",
        "longitude": "-72.4292646",
        "coord": "0101000020E610000027953A12791B52C00E338F577B714640",
        "has upick": "",
        "upick offerings": "",
        "upick source": ""
      },
      {
        "id": "2080",
        "name": "Chicory Meadow Farm",
        "site": "https://www.chicorymeadowstableandhorsefarm.com/",
        "phone": "914-737-7814",
        "full_address": "76 Jack Rd, Cortlandt, NY 10567",
        "street": "76 Jack Rd",
        "city": "Cortlandt",
        "postal_code": "10567",
        "state": "New York",
        "reviews": "22",
        "working_hours": "{\"Monday\": \"Closed\", \"Tuesday\": \"9AM-6PM\", \"Wednesday\": \"9AM-6PM\", \"Thursday\": \"9AM-6PM\", \"Friday\": \"9AM-6PM\", \"Saturday\": \"9AM-6PM\", \"Sunday\": \"9AM-6PM\"}",
        "imported_at": "2025-08-23 16:58:34.816308+00",
        "dup_key": "chicory meadow farm|cortlandt|new york",
        "quality_score": "92",
        "is_primary": "TRUE",
        "latitude": "41.3220307",
        "longitude": "-73.9357923",
        "coord": "0101000020E610000050166305E47B52C06C674E4D38A94440",
        "has upick": "",
        "upick offerings": "",
        "upick source": ""
      },
      {
        "id": "2197",
        "name": "A Natural Farm and Educational Center",
        "site": "http://www.anaturalfarm.com/",
        "phone": "352-536-3112",
        "full_address": "23630 FL-19, Howey-In-The-Hills, FL 34737",
        "street": "",
        "city": "",
        "postal_code": "",
        "state": "",
        "reviews": "218",
        "working_hours": "{\"Friday\":[\"8\u202fAM\u20134\u202fPM\"],\"Monday\":[\"8\u202fAM\u20134\u202fPM\"],\"Saturday\":[\"8\u202fAM\u20134\u202fPM\"],\"Sunday\":[\"Closed\"],\"Thursday\":[\"8\u202fAM\u20134\u202fPM\"],\"Tuesday\":[\"8\u202fAM\u20134\u202fPM\"],\"Wednesday\":[\"8\u202fAM\u20134\u202fPM\"]}",
        "imported_at": "2025-08-26 05:49:18.345127+00",
        "dup_key": "a natural farm and educational center|+13525363112",
        "quality_score": "",
        "is_primary": "TRUE",
        "latitude": "28.691031",
        "longitude": "-81.779599",
        "coord": "0101000020E6100000A33F34F3E47154C0AD855968E7B03C40",
        "has upick": "",
        "upick offerings": "",
        "upick source": ""
      },
      {
        "id": "1300",
        "name": "Phoenix Fruit Farm",
        "site": "http://www.phoenixfruitfarm.com/",
        "phone": "",
        "full_address": "249 Sabin St, Belchertown, MA 01007",
        "street": "249 Sabin St",
        "city": "Belchertown",
        "postal_code": "1007",
        "state": "Massachusetts",
        "reviews": "61",
        "working_hours": "",
        "imported_at": "2025-08-23 16:58:33.980573+00",
        "dup_key": "phoenix fruit farm|belchertown|massachusetts",
        "quality_score": "111",
        "is_primary": "TRUE",
        "latitude": "42.2610076",
        "longitude": "-72.3616905",
        "coord": "0101000020E61000008731E9EF251752C0F40071B268214540",
        "has upick": "",
        "upick offerings": "",
        "upick source": ""
      },
      {
        "id": "1393",
        "name": "EBF - Farms (Eenigenburg's Berry Farm) North side",
        "site": "http://northberryfarm.com/",
        "phone": "219-987-2424",
        "full_address": "713 15th Ave NW, De Motte, IN 46310",
        "street": "713 15th Ave NW",
        "city": "De Motte",
        "postal_code": "46310",
        "state": "Indiana",
        "reviews": "55",
        "working_hours": "{\"Monday\": \"7AM-5PM\", \"Tuesday\": \"7AM-5PM\", \"Wednesday\": \"7AM-5PM\", \"Thursday\": \"7AM-5PM\", \"Friday\": \"7AM-4PM\", \"Saturday\": \"7AM-4PM\", \"Sunday\": \"Closed\"}",
        "imported_at": "2025-08-23 16:58:33.980573+00",
        "dup_key": "ebf - farms (eenigenburg's berry farm) north side|de motte|indiana",
        "quality_score": "125",
        "is_primary": "TRUE",
        "latitude": "41.2155743",
        "longitude": "-87.2080911",
        "coord": "0101000020E6100000AC45555D51CD55C0D62D4CF0979B4440",
        "has upick": "",
        "upick offerings": "",
        "upick source": ""
      },
      {
        "id": "1314",
        "name": "Champaign Berry Farm",
        "site": "http://www.champaignberryfarm.com/",
        "phone": "937-232-7525",
        "full_address": "5676 E State Rte 29, Urbana, OH 43078",
        "street": "5676 E State Rte 29",
        "city": "Urbana",
        "postal_code": "43078",
        "state": "Ohio",
        "reviews": "60",
        "working_hours": "{\"Monday\": \"Closed\", \"Tuesday\": \"Closed\", \"Wednesday\": \"12-6PM\", \"Thursday\": \"12-6PM\", \"Friday\": \"12-6PM\", \"Saturday\": \"12-6PM\", \"Sunday\": \"Closed\"}",
        "imported_at": "2025-08-23 16:58:33.980573+00",
        "dup_key": "champaign berry farm|urbana|ohio",
        "quality_score": "130",
        "is_primary": "TRUE",
        "latitude": "40.0802137",
        "longitude": "-83.6432428",
        "coord": "0101000020E6100000CC58D9E32AE954C078184971440A4440",
        "has upick": "",
        "upick offerings": "",
        "upick source": ""
      },
      {
        "id": "2060",
        "name": "Last Resort Farm",
        "site": "http://www.lastresortfarm.com/",
        "phone": "802-453-2847",
        "full_address": "2246 Tyler Bridge Rd, Bristol, VT 05443",
        "street": "2246 Tyler Bridge Rd",
        "city": "Bristol",
        "postal_code": "5443",
        "state": "Vermont",
        "reviews": "23",
        "working_hours": "{\"Monday\": \"7AM-7PM\", \"Tuesday\": \"7AM-7PM\", \"Wednesday\": \"7AM-7PM\", \"Thursday\": \"7AM-7PM\", \"Friday\": \"7AM-7PM\", \"Saturday\": \"7AM-7PM\", \"Sunday\": \"7AM-7PM\"}",
        "imported_at": "2025-08-23 16:58:34.816308+00",
        "dup_key": "last resort farm|bristol|vermont",
        "quality_score": "93",
        "is_primary": "TRUE",
        "latitude": "44.2660654",
        "longitude": "-73.1014222",
        "coord": "0101000020E6100000A8058AB37D4652C070CC576E0E224640",
        "has upick": "",
        "upick offerings": "",
        "upick source": ""
      },
      {
        "id": "1916",
        "name": "Parkers Orchard",
        "site": "https://www.facebook.com/pages/category/Fruit---Vegetable-Store/Parkers-Orchard-1282474471765757/",
        "phone": "336-921-0075",
        "full_address": "8217 Brushy Mountain Rd, Moravian Falls, NC 28654",
        "street": "8217 Brushy Mountain Rd",
        "city": "Moravian Falls",
        "postal_code": "28654",
        "state": "North Carolina",
        "reviews": "27",
        "working_hours": "{\"Monday\": \"9AM-5PM\", \"Tuesday\": \"9AM-5PM\", \"Wednesday\": \"9AM-5PM\", \"Thursday\": \"9AM-5PM\", \"Friday\": \"9AM-5PM\", \"Saturday\": \"9AM-5PM\", \"Sunday\": \"Closed\"}",
        "imported_at": "2025-08-23 16:58:34.816308+00",
        "dup_key": "parkers orchard|moravian falls|north carolina",
        "quality_score": "97",
        "is_primary": "TRUE",
        "latitude": "36.0746957",
        "longitude": "-81.1170092",
        "coord": "0101000020E610000032D527147D4754C06F53F2A08F094240",
        "has upick": "",
        "upick offerings": "",
        "upick source": ""
      }
    ],
    "count": 20,
    "status": "assigned",
    "assigned_at": "2025-09-07T04:30:45.560380"
  }
}