{
  "improved_agent_1": {
    "farms": [
      {
        "id": "1254",
        "name": "Bees & Trees Farm",
        "site": "https://www.beesandtrees.biz/",
        "phone": "540-423-9020",
        "full_address": "18028 Carrico Mills Rd, Elkwood, VA 22718",
        "street": "18028 Carrico Mills Rd",
        "city": "Elkwood",
        "postal_code": "22718",
        "state": "Virginia",
        "reviews": "65",
        "working_hours": "{\"Monday\": \"Closed\", \"Tuesday\": \"Closed\", \"Wednesday\": \"10AM-4PM\", \"Thursday\": \"10AM-4PM\", \"Friday\": \"10AM-4PM\", \"Saturday\": \"10AM-4PM\", \"Sunday\": \"10AM-4PM\"}",
        "imported_at": "2025-08-23 16:58:33.980573+00",
        "dup_key": "bees & trees farm|elkwood|virginia",
        "quality_score": "135",
        "is_primary": "TRUE",
        "latitude": "38.455413",
        "longitude": "-77.85906",
        "coord": "0101000020E61000005053CBD6FA7653C02D9622F94A3A4340",
        "has upick": "Unknown",
        "u-pick offerings": "",
        "u-pick sources": ""
      },
      {
        "id": "1242",
        "name": "Farmer In The Dell Pumpkin Patch",
        "site": "https://auburnpumpkinpatch.com/",
        "phone": "334-750-3792",
        "full_address": "6500 Lee Rd 137, Auburn, AL 36832",
        "street": "6500 Lee Rd 137",
        "city": "Auburn",
        "postal_code": "36832",
        "state": "Alabama",
        "reviews": "66",
        "working_hours": "{\"Monday\": \"3-6PM\", \"Tuesday\": \"3-6PM\", \"Wednesday\": \"3-6PM\", \"Thursday\": \"3-5PM\", \"Friday\": \"Closed\", \"Saturday\": \"Closed\", \"Sunday\": \"Closed\"}",
        "imported_at": "2025-08-23 16:58:33.980573+00",
        "dup_key": "farmer in the dell pumpkin patch|auburn|alabama",
        "quality_score": "136",
        "is_primary": "TRUE",
        "latitude": "32.5411071",
        "longitude": "-85.5930709",
        "coord": "0101000020E610000065EDA5DFF46555C0131159FF42454040",
        "has upick": "Unknown",
        "u-pick offerings": "",
        "u-pick sources": ""
      },
      {
        "id": "1111",
        "name": "lyman orchard strawberry field",
        "site": "http://lymanorchards.com/orchard/pick-your-own/strawberries/",
        "phone": "860-349-6015",
        "full_address": "24-52 South St, Middlefield, CT 06455",
        "street": "24-52 South St",
        "city": "Middlefield",
        "postal_code": "6455",
        "state": "Connecticut",
        "reviews": "79",
        "working_hours": "{\"Monday\": \"8AM-4:30PM\", \"Tuesday\": \"8AM-4:30PM\", \"Wednesday\": \"8AM-4:30PM\", \"Thursday\": \"8AM-4:30PM\", \"Friday\": \"8AM-4:30PM\", \"Saturday\": \"8AM-4:30PM\", \"Sunday\": \"8AM-4:30PM\"}",
        "imported_at": "2025-08-23 16:58:33.980573+00",
        "dup_key": "lyman orchard strawberry field|middlefield|connecticut",
        "quality_score": "149",
        "is_primary": "TRUE",
        "latitude": "41.49533",
        "longitude": "-72.7229953",
        "coord": "0101000020E6100000592A148E452E52C0255D33F966BF4440",
        "has upick": "Unknown",
        "u-pick offerings": "",
        "u-pick sources": ""
      },
      {
        "id": "1268",
        "name": "Higher Taste Blueberry Farm",
        "site": "",
        "phone": "206-579-0214",
        "full_address": "30431 38th Ave S, Auburn, WA 98001",
        "street": "30431 38th Ave S",
        "city": "Auburn",
        "postal_code": "98001",
        "state": "Washington",
        "reviews": "64",
        "working_hours": "{\"Sunday\": \"10AM-8PM\", \"Monday\": \"10AM-8PM\", \"Tuesday\": \"10AM-8PM\", \"Wednesday\": \"10AM-8PM\", \"Thursday\": \"10AM-8PM\", \"Friday\": \"10AM-8PM\", \"Saturday\": \"10AM-8PM\"}",
        "imported_at": "2025-08-23 16:58:33.980573+00",
        "dup_key": "higher taste blueberry farm|auburn|washington",
        "quality_score": "84",
        "is_primary": "TRUE",
        "latitude": "47.3281551",
        "longitude": "-122.2857261",
        "coord": "0101000020E610000046C71F5649925EC0FF417FFC00AA4740",
        "has upick": "Unknown",
        "u-pick offerings": "",
        "u-pick sources": ""
      },
      {
        "id": "1273",
        "name": "Virginia Gold Orchard",
        "site": "http://www.virginiagoldorchard.com/",
        "phone": "540-291-1481",
        "full_address": "100 Asian Pear Way, Natural Bridge, VA 24578",
        "street": "100 Asian Pear Way",
        "city": "Natural Bridge",
        "postal_code": "24578",
        "state": "Virginia",
        "reviews": "63",
        "working_hours": "{\"Monday\": \"9AM-7PM\", \"Tuesday\": \"9AM-7PM\", \"Wednesday\": \"9AM-7PM\", \"Thursday\": \"9AM-7PM\", \"Friday\": \"9AM-7PM\", \"Saturday\": \"9AM-7PM\", \"Sunday\": \"9AM-7PM\"}",
        "imported_at": "2025-08-23 16:58:33.980573+00",
        "dup_key": "virginia gold orchard|natural bridge|virginia",
        "quality_score": "133",
        "is_primary": "TRUE",
        "latitude": "37.685856",
        "longitude": "-79.494411",
        "coord": "0101000020E610000017F2086EA4DF53C0F8E12021CAD74240",
        "has upick": "Unknown",
        "u-pick offerings": "",
        "u-pick sources": ""
      },
      {
        "id": "1173",
        "name": "Holleydale Farms & Gardens",
        "site": "http://www.holleydale.com/",
        "phone": "330-323-0606",
        "full_address": "4097 Dressler Rd NW, Canton, OH 44718",
        "street": "4097 Dressler Rd NW",
        "city": "Canton",
        "postal_code": "44718",
        "state": "Ohio",
        "reviews": "72",
        "working_hours": "{\"Monday\": \"10AM-6PM\", \"Tuesday\": \"10AM-6PM\", \"Wednesday\": \"10AM-6PM\", \"Thursday\": \"10AM-6PM\", \"Friday\": \"10AM-6PM\", \"Saturday\": \"10AM-6PM\", \"Sunday\": \"10AM-6PM\"}",
        "imported_at": "2025-08-23 16:58:33.980573+00",
        "dup_key": "holleydale farms & gardens|canton|ohio",
        "quality_score": "142",
        "is_primary": "TRUE",
        "latitude": "40.8405207",
        "longitude": "-81.4352675",
        "coord": "0101000020E6100000BF60376CDB5B54C0360EAB2E966B4440",
        "has upick": "Unknown",
        "u-pick offerings": "",
        "u-pick sources": ""
      },
      {
        "id": "1104",
        "name": "Slow Farm",
        "site": "http://slowfarmorganic.com/",
        "phone": "734-249-8359",
        "full_address": "4700 Whitmore Lake Rd, Ann Arbor, MI 48105",
        "street": "4700 Whitmore Lake Rd",
        "city": "Ann Arbor",
        "postal_code": "48105",
        "state": "Michigan",
        "reviews": "80",
        "working_hours": "{\"Monday\": \"Closed\", \"Tuesday\": \"Closed\", \"Wednesday\": \"Closed\", \"Thursday\": \"Closed\", \"Friday\": \"Closed\", \"Saturday\": \"9AM-12PM\", \"Sunday\": \"9AM-12PM\"}",
        "imported_at": "2025-08-23 16:58:33.980573+00",
        "dup_key": "slow farm|ann arbor|michigan",
        "quality_score": "150",
        "is_primary": "TRUE",
        "latitude": "42.3387206",
        "longitude": "-83.7516714",
        "coord": "0101000020E6100000AA155C621BF054C0A0BD55325B2B4540",
        "has upick": "Unknown",
        "u-pick offerings": "",
        "u-pick sources": ""
      },
      {
        "id": "1167",
        "name": "Wild Hare Organic Farm",
        "site": "http://www.wildhareorganicfarm.com/",
        "phone": "253-778-6257",
        "full_address": "4520 River Rd E, Tacoma, WA 98443",
        "street": "4520 River Rd E",
        "city": "Tacoma",
        "postal_code": "98443",
        "state": "Washington",
        "reviews": "73",
        "working_hours": "{\"Sunday\": \"Closed\", \"Monday\": \"Closed\", \"Tuesday\": \"12-7PM\", \"Wednesday\": \"10AM-5PM\", \"Thursday\": \"Closed\", \"Friday\": \"Closed\", \"Saturday\": \"9AM-2PM\"}",
        "imported_at": "2025-08-23 16:58:33.980573+00",
        "dup_key": "wild hare organic farm|tacoma|washington",
        "quality_score": "143",
        "is_primary": "TRUE",
        "latitude": "47.2253843",
        "longitude": "-122.3682837",
        "coord": "0101000020E610000098C9CBF591975EC012C48A64D99C4740",
        "has upick": "Unknown",
        "u-pick offerings": "",
        "u-pick sources": ""
      },
      {
        "id": "1098",
        "name": "Blueberry Thrill Farm",
        "site": "http://www.blueberrythrillfarm.com/",
        "phone": "336-449-7246",
        "full_address": "6938 Eaglesfield Rd, Gibsonville, NC 27249",
        "street": "6938 Eaglesfield Rd",
        "city": "Gibsonville",
        "postal_code": "27249",
        "state": "North Carolina",
        "reviews": "81",
        "working_hours": "",
        "imported_at": "2025-08-23 16:58:33.980573+00",
        "dup_key": "blueberry thrill farm|gibsonville|north carolina",
        "quality_score": "151",
        "is_primary": "TRUE",
        "latitude": "36.1398781",
        "longitude": "-79.5780623",
        "coord": "0101000020E61000003C6304F9FEE453C09B768C86E7114240",
        "has upick": "Unknown",
        "u-pick offerings": "",
        "u-pick sources": ""
      },
      {
        "id": "1207",
        "name": "Alpine Blue Farm",
        "site": "",
        "phone": "209-990-2752",
        "full_address": "7490 State Rte 26, Stockton, CA 95215",
        "street": "7490 State Rte 26",
        "city": "Stockton",
        "postal_code": "95215",
        "state": "California",
        "reviews": "69",
        "working_hours": "",
        "imported_at": "2025-08-23 16:58:33.980573+00",
        "dup_key": "alpine blue farm|stockton|california",
        "quality_score": "89",
        "is_primary": "TRUE",
        "latitude": "37.9849447",
        "longitude": "-121.1975686",
        "coord": "0101000020E6100000DBEDC4F6A44C5EC02C6FFDAA12FE4240",
        "has upick": "Unknown",
        "u-pick offerings": "",
        "u-pick sources": ""
      },
      {
        "id": "1192",
        "name": "5G Farms",
        "site": "http://www.5gfarmtx.com/",
        "phone": "214-471-6778",
        "full_address": "6601 Co Rd 166, McKinney, TX 75071",
        "street": "6601 Co Rd 166",
        "city": "McKinney",
        "postal_code": "75071",
        "state": "Texas",
        "reviews": "71",
        "working_hours": "{\"Monday\": \"Closed\", \"Tuesday\": \"Closed\", \"Wednesday\": \"11AM-4PM\", \"Thursday\": \"11AM-4PM\", \"Friday\": \"11AM-7PM\", \"Saturday\": \"9AM-7PM\", \"Sunday\": \"11AM-5PM\"}",
        "imported_at": "2025-08-23 16:58:33.980573+00",
        "dup_key": "5g farms|mckinney|texas",
        "quality_score": "141",
        "is_primary": "TRUE",
        "latitude": "33.2674206",
        "longitude": "-96.6825814",
        "coord": "0101000020E6100000E876E569AF2B58C06BA395D63AA24040",
        "has upick": "Unknown",
        "u-pick offerings": "",
        "u-pick sources": ""
      },
      {
        "id": "1170",
        "name": "JQ Fruit Farm & Orchard",
        "site": "https://www.jqfruitfarm.com/",
        "phone": "763-389-2567",
        "full_address": "8082 33rd St, Princeton, MN 55371",
        "street": "8082 33rd St",
        "city": "Princeton",
        "postal_code": "55371",
        "state": "Minnesota",
        "reviews": "72",
        "working_hours": "{\"Monday\": \"Closed\", \"Tuesday\": \"Closed\", \"Wednesday\": \"Closed\", \"Thursday\": \"Closed\", \"Friday\": \"Closed\", \"Saturday\": \"Closed\", \"Sunday\": \"9AM-1PM\"}",
        "imported_at": "2025-08-23 16:58:33.980573+00",
        "dup_key": "jq fruit farm & orchard|princeton|minnesota",
        "quality_score": "142",
        "is_primary": "TRUE",
        "latitude": "45.5916051",
        "longitude": "-93.5751964",
        "coord": "0101000020E6100000B9B18F04D06457C0CB5246B7B9CB4640",
        "has upick": "Unknown",
        "u-pick offerings": "",
        "u-pick sources": ""
      },
      {
        "id": "1271",
        "name": "Windy Fields Farm",
        "site": "https://windyfieldsfarm.wordpress.com/",
        "phone": "603-651-5877",
        "full_address": "1170 NH-16, Ossipee, NH 03864",
        "street": "1170 NH-16",
        "city": "Ossipee",
        "postal_code": "3864",
        "state": "New Hampshire",
        "reviews": "64",
        "working_hours": "{\"Monday\": \"Closed\", \"Tuesday\": \"7AM-6:30PM\", \"Wednesday\": \"7AM-6:30PM\", \"Thursday\": \"7AM-6:30PM\", \"Friday\": \"7AM-6:30PM\", \"Saturday\": \"7AM-6:30PM\", \"Sunday\": \"Closed\"}",
        "imported_at": "2025-08-23 16:58:33.980573+00",
        "dup_key": "windy fields farm|ossipee|new hampshire",
        "quality_score": "134",
        "is_primary": "TRUE",
        "latitude": "43.7327845",
        "longitude": "-71.128601",
        "coord": "0101000020E6100000E84EB0FF3AC851C00342EBE1CBDD4540",
        "has upick": "Unknown",
        "u-pick offerings": "",
        "u-pick sources": ""
      },
      {
        "id": "1154",
        "name": "Stokes Berry Farm",
        "site": "https://upickfarmsusa.com/oh/clinton-county/stokes-berry-farm/",
        "phone": "937-317-0074",
        "full_address": "2822 Center Rd, Wilmington, OH 45177",
        "street": "2822 Center Rd",
        "city": "Wilmington",
        "postal_code": "45177",
        "state": "Ohio",
        "reviews": "74",
        "working_hours": "{\"Monday\": \"Closed\", \"Tuesday\": \"Closed\", \"Wednesday\": \"6-9PM\", \"Thursday\": \"Closed\", \"Friday\": \"Closed\", \"Saturday\": \"Closed\", \"Sunday\": \"Closed\"}",
        "imported_at": "2025-08-23 16:58:33.980573+00",
        "dup_key": "stokes berry farm|wilmington|ohio",
        "quality_score": "144",
        "is_primary": "TRUE",
        "latitude": "39.4945239",
        "longitude": "-83.8803508",
        "coord": "0101000020E61000007AC0E1AA57F854C091CB248F4CBF4340",
        "has upick": "Unknown",
        "u-pick offerings": "",
        "u-pick sources": ""
      },
      {
        "id": "1153",
        "name": "The Patch on 37 (Lynd Fruit Farm)",
        "site": "http://lyndfruitfarm.com/",
        "phone": "740-927-8559",
        "full_address": "3131 Johnstown-Alexandria Rd, Alexandria, OH 43001",
        "street": "3131 Johnstown-Alexandria Rd",
        "city": "Alexandria",
        "postal_code": "43001",
        "state": "Ohio",
        "reviews": "74",
        "working_hours": "{\"Monday\": \"8AM-12PM\", \"Tuesday\": \"8AM-12PM\", \"Wednesday\": \"8AM-12PM\", \"Thursday\": \"8AM-12PM\", \"Friday\": \"8AM-12PM\", \"Saturday\": \"Closed\", \"Sunday\": \"Closed\"}",
        "imported_at": "2025-08-23 16:58:33.980573+00",
        "dup_key": "the patch on 37 (lynd fruit farm)|alexandria|ohio",
        "quality_score": "144",
        "is_primary": "TRUE",
        "latitude": "40.1016109",
        "longitude": "-82.6369455",
        "coord": "0101000020E610000066F50EB7C3A854C064350296010D4440",
        "has upick": "Unknown",
        "u-pick offerings": "",
        "u-pick sources": ""
      },
      {
        "id": "1105",
        "name": "Frysville Farms",
        "site": "http://www.frysvillefarms.com/",
        "phone": "717-354-4501",
        "full_address": "300 Frysville Rd, Ephrata, PA 17522",
        "street": "300 Frysville Rd",
        "city": "Ephrata",
        "postal_code": "17522",
        "state": "Pennsylvania",
        "reviews": "80",
        "working_hours": "{\"Monday\": \"8AM-4PM\", \"Tuesday\": \"8AM-4PM\", \"Wednesday\": \"8AM-4PM\", \"Thursday\": \"8AM-4PM\", \"Friday\": \"12AM-4PM\", \"Saturday\": \"8AM-4PM\", \"Sunday\": \"Closed\"}",
        "imported_at": "2025-08-23 16:58:33.980573+00",
        "dup_key": "frysville farms|ephrata|pennsylvania",
        "quality_score": "150",
        "is_primary": "TRUE",
        "latitude": "40.1707435",
        "longitude": "-76.1024719",
        "coord": "0101000020E610000094D04CE68E0653C096404AECDA154440",
        "has upick": "Unknown",
        "u-pick offerings": "",
        "u-pick sources": ""
      },
      {
        "id": "1097",
        "name": "Riverbed Farm",
        "site": "http://www.theriverbedfarm.com/",
        "phone": "",
        "full_address": "1426 E Vermont Ave, Anaheim, CA 92805",
        "street": "1426 E Vermont Ave",
        "city": "Anaheim",
        "postal_code": "92805",
        "state": "California",
        "reviews": "82",
        "working_hours": "{\"Sunday\": \"Closed\", \"Monday\": \"9AM-1PM\", \"Tuesday\": \"Closed\", \"Wednesday\": \"9AM-1PM\", \"Thursday\": \"Closed\", \"Friday\": \"2-6PM\", \"Saturday\": \"Closed\"}",
        "imported_at": "2025-08-23 16:58:33.980573+00",
        "dup_key": "riverbed farm|anaheim|california",
        "quality_score": "132",
        "is_primary": "TRUE",
        "latitude": "33.8260568",
        "longitude": "-117.8934741",
        "coord": "0101000020E6100000ADD4FDAD2E795DC0B851AE3ABCE94040",
        "has upick": "Unknown",
        "u-pick offerings": "",
        "u-pick sources": ""
      },
      {
        "id": "1133",
        "name": "Koan's Orchard",
        "site": "",
        "phone": "810-659-8720",
        "full_address": "12183 Beecher Rd, Flushing, MI 48433",
        "street": "12183 Beecher Rd",
        "city": "Flushing",
        "postal_code": "48433",
        "state": "Michigan",
        "reviews": "77",
        "working_hours": "{\"Monday\": \"9AM-6PM\", \"Tuesday\": \"9AM-6PM\", \"Wednesday\": \"9AM-6PM\", \"Thursday\": \"9AM-6PM\", \"Friday\": \"9AM-6PM\", \"Saturday\": \"9AM-6PM\", \"Sunday\": \"9AM-6PM\"}",
        "imported_at": "2025-08-23 16:58:33.980573+00",
        "dup_key": "koan's orchard|flushing|michigan",
        "quality_score": "97",
        "is_primary": "TRUE",
        "latitude": "43.0292801",
        "longitude": "-83.9176437",
        "coord": "0101000020E61000005938A4ACBAFA54C039F64773BF834540",
        "has upick": "Unknown",
        "u-pick offerings": "",
        "u-pick sources": ""
      },
      {
        "id": "1122",
        "name": "Graves Mountain Farm",
        "site": "",
        "phone": "540-923-4231",
        "full_address": "141 Apple Tree Ln, Syria, VA 22743",
        "street": "141 Apple Tree Ln",
        "city": "Syria",
        "postal_code": "22743",
        "state": "Virginia",
        "reviews": "78",
        "working_hours": "",
        "imported_at": "2025-08-23 16:58:33.980573+00",
        "dup_key": "graves mountain farm|syria|virginia",
        "quality_score": "98",
        "is_primary": "TRUE",
        "latitude": "38.4934255",
        "longitude": "-78.3321317",
        "coord": "0101000020E6100000C05D51A5419553C098C11891283F4340",
        "has upick": "Unknown",
        "u-pick offerings": "",
        "u-pick sources": ""
      },
      {
        "id": "1229",
        "name": "Old Hook Farm",
        "site": "http://www.oldhookfarm.com/",
        "phone": "201-265-4835",
        "full_address": "650 Old Hook Rd, Emerson, NJ 07630",
        "street": "650 Old Hook Rd",
        "city": "Emerson",
        "postal_code": "7630",
        "state": "New Jersey",
        "reviews": "67",
        "working_hours": "{\"Monday\": \"Closed\", \"Tuesday\": \"10AM-5PM\", \"Wednesday\": \"10AM-5PM\", \"Thursday\": \"10AM-5PM\", \"Friday\": \"10AM-5PM\", \"Saturday\": \"10AM-5PM\", \"Sunday\": \"10AM-4PM\"}",
        "imported_at": "2025-08-23 16:58:33.980573+00",
        "dup_key": "old hook farm|emerson|new jersey",
        "quality_score": "137",
        "is_primary": "TRUE",
        "latitude": "40.978731",
        "longitude": "-73.996964",
        "coord": "0101000020E610000084D21742CE7F52C06B4AB20E477D4440",
        "has upick": "Unknown",
        "u-pick offerings": "",
        "u-pick sources": ""
      }
    ],
    "count": 20,
    "status": "ready_for_research"
  },
  "improved_agent_2": {
    "farms": [
      {
        "id": "1290",
        "name": "White Plains Orchids, Orchid Farm and Shop",
        "site": "http://whiteplainsorchids.com/",
        "phone": "914-948-2064",
        "full_address": "1485 Mamaroneck Ave, White Plains, NY 10605",
        "street": "1485 Mamaroneck Ave",
        "city": "White Plains",
        "postal_code": "10605",
        "state": "New York",
        "reviews": "62",
        "working_hours": "{\"Monday\": \"Closed\", \"Tuesday\": \"Closed\", \"Wednesday\": \"9:30AM-5PM\", \"Thursday\": \"9:30AM-5PM\", \"Friday\": \"9:30AM-5PM\", \"Saturday\": \"9:30AM-5PM\", \"Sunday\": \"9:30AM-4PM\"}",
        "imported_at": "2025-08-23 16:58:33.980573+00",
        "dup_key": "white plains orchids, orchid farm and shop|white plains|new york",
        "quality_score": "132",
        "is_primary": "TRUE",
        "latitude": "40.9915809",
        "longitude": "-73.7448654",
        "coord": "0101000020E6100000013BEDDFAB6F52C04C6B781FEC7E4440",
        "has upick": "Unknown",
        "u-pick offerings": "",
        "u-pick sources": ""
      },
      {
        "id": "1135",
        "name": "Schneiders Farm",
        "site": "http://www.schneidersfarmmelville.com/",
        "phone": "631-673-5844",
        "full_address": "316 Old Country Rd, Melville, NY 11747",
        "street": "316 Old Country Rd",
        "city": "Melville",
        "postal_code": "11747",
        "state": "New York",
        "reviews": "76",
        "working_hours": "{\"Monday\": \"9AM-6PM\", \"Tuesday\": \"9AM-6PM\", \"Wednesday\": \"9AM-6PM\", \"Thursday\": \"9AM-6PM\", \"Friday\": \"9AM-6PM\", \"Saturday\": \"9AM-6PM\", \"Sunday\": \"9AM-6PM\"}",
        "imported_at": "2025-08-23 16:58:33.980573+00",
        "dup_key": "schneiders farm|melville|new york",
        "quality_score": "146",
        "is_primary": "TRUE",
        "latitude": "40.8013583",
        "longitude": "-73.3994292",
        "coord": "0101000020E610000051C47D3F905952C06770A5E892664440",
        "has upick": "Unknown",
        "u-pick offerings": "",
        "u-pick sources": ""
      },
      {
        "id": "1228",
        "name": "Grassy Ridge Farms",
        "site": "http://www.grassyridgefarms.com/",
        "phone": "570-240-3663",
        "full_address": "19 Lutes Cor Rd, Noxen, PA 18636",
        "street": "19 Lutes Cor Rd",
        "city": "Noxen",
        "postal_code": "18636",
        "state": "Pennsylvania",
        "reviews": "67",
        "working_hours": "{\"Monday\": \"10AM-6PM\", \"Tuesday\": \"10AM-6PM\", \"Wednesday\": \"10AM-6PM\", \"Thursday\": \"10AM-6PM\", \"Friday\": \"10AM-6PM\", \"Saturday\": \"10AM-6PM\", \"Sunday\": \"10AM-6PM\"}",
        "imported_at": "2025-08-23 16:58:33.980573+00",
        "dup_key": "grassy ridge farms|noxen|pennsylvania",
        "quality_score": "137",
        "is_primary": "TRUE",
        "latitude": "41.4297314",
        "longitude": "-76.0193419",
        "coord": "0101000020E610000052FCCEE53C0153C03B88427001B74440",
        "has upick": "Unknown",
        "u-pick offerings": "",
        "u-pick sources": ""
      },
      {
        "id": "1274",
        "name": "Berryhill Farm",
        "site": "https://www.berryhillfarm.net/",
        "phone": "937-374-8747",
        "full_address": "127 E Krepps Rd, Xenia, OH 45385",
        "street": "127 E Krepps Rd",
        "city": "Xenia",
        "postal_code": "45385",
        "state": "Ohio",
        "reviews": "63",
        "working_hours": "",
        "imported_at": "2025-08-23 16:58:33.980573+00",
        "dup_key": "berryhill farm|xenia|ohio",
        "quality_score": "133",
        "is_primary": "TRUE",
        "latitude": "39.6311976",
        "longitude": "-83.9370868",
        "coord": "0101000020E6100000DAE0E93AF9FB54C027A83C15CBD04340",
        "has upick": "Unknown",
        "u-pick offerings": "",
        "u-pick sources": ""
      },
      {
        "id": "1155",
        "name": "Pennypack Farm & Education Center",
        "site": "http://www.pennypackfarm.org/",
        "phone": "267-544-7332",
        "full_address": "685 Mann Rd, Horsham, PA 19044",
        "street": "685 Mann Rd",
        "city": "Horsham",
        "postal_code": "19044",
        "state": "Pennsylvania",
        "reviews": "74",
        "working_hours": "{\"Monday\": \"2:30-7:30PM\", \"Tuesday\": \"Closed\", \"Wednesday\": \"2:30-7:30PM\", \"Thursday\": \"Closed\", \"Friday\": \"2:30-7:30PM\", \"Saturday\": \"Closed\", \"Sunday\": \"Closed\"}",
        "imported_at": "2025-08-23 16:58:33.980573+00",
        "dup_key": "pennypack farm & education center|horsham|pennsylvania",
        "quality_score": "144",
        "is_primary": "TRUE",
        "latitude": "40.1751245",
        "longitude": "-75.1651586",
        "coord": "0101000020E6100000CD6960F591CA52C03B1DC87A6A164440",
        "has upick": "Unknown",
        "u-pick offerings": "",
        "u-pick sources": ""
      },
      {
        "id": "1151",
        "name": "Zekiah Farms3, LLC",
        "site": "https://zekiahfarms3.com/",
        "phone": "240-216-4065",
        "full_address": "5235 Bryantown Rd, Waldorf, MD 20601",
        "street": "5235 Bryantown Rd",
        "city": "Waldorf",
        "postal_code": "20601",
        "state": "Maryland",
        "reviews": "74",
        "working_hours": "{\"Monday\": \"9AM-2PM\", \"Tuesday\": \"9AM-2PM\", \"Wednesday\": \"12-6PM\", \"Thursday\": \"12-6PM\", \"Friday\": \"12-6PM\", \"Saturday\": \"9AM-2PM\", \"Sunday\": \"Closed\"}",
        "imported_at": "2025-08-23 16:58:33.980573+00",
        "dup_key": "zekiah farms3, llc|waldorf|maryland",
        "quality_score": "144",
        "is_primary": "TRUE",
        "latitude": "38.5706029",
        "longitude": "-76.8388115",
        "coord": "0101000020E61000008E006E16AF3553C05A400D8409494340",
        "has upick": "Unknown",
        "u-pick offerings": "",
        "u-pick sources": ""
      },
      {
        "id": "1239",
        "name": "Century Farm Orchards",
        "site": "http://www.centuryfarmorchards.com/",
        "phone": "336-349-5709",
        "full_address": "1614 Rice Rd, Reidsville, NC 27320",
        "street": "1614 Rice Rd",
        "city": "Reidsville",
        "postal_code": "27320",
        "state": "North Carolina",
        "reviews": "66",
        "working_hours": "",
        "imported_at": "2025-08-23 16:58:33.980573+00",
        "dup_key": "century farm orchards|reidsville|north carolina",
        "quality_score": "136",
        "is_primary": "TRUE",
        "latitude": "36.317867",
        "longitude": "-79.4895",
        "coord": "0101000020E610000016D9CEF753DF53C023BDA8DDAF284240",
        "has upick": "Unknown",
        "u-pick offerings": "",
        "u-pick sources": ""
      },
      {
        "id": "1250",
        "name": "J&M Farms",
        "site": "https://jandmfarmsnc.com/",
        "phone": "828-685-3311",
        "full_address": "3016 Chimney Rock Rd, Hendersonville, NC 28792",
        "street": "3016 Chimney Rock Rd",
        "city": "Hendersonville",
        "postal_code": "28792",
        "state": "North Carolina",
        "reviews": "66",
        "working_hours": "{\"Monday\": \"9AM-6PM\", \"Tuesday\": \"9AM-9PM\", \"Wednesday\": \"9AM-9PM\", \"Thursday\": \"9AM-9PM\", \"Friday\": \"9AM-9PM\", \"Saturday\": \"9AM-9PM\", \"Sunday\": \"9AM-6PM\"}",
        "imported_at": "2025-08-23 16:58:33.980573+00",
        "dup_key": "j&m farms|hendersonville|north carolina",
        "quality_score": "136",
        "is_primary": "TRUE",
        "latitude": "35.36636",
        "longitude": "-82.40674",
        "coord": "0101000020E6100000677E3507089A54C002486DE2E4AE4140",
        "has upick": "Unknown",
        "u-pick offerings": "",
        "u-pick sources": ""
      },
      {
        "id": "1260",
        "name": "Outback Farm",
        "site": "http://www.outbackfarm.org/",
        "phone": "918-519-7396",
        "full_address": "4163 E 470, Pryor, OK 74361",
        "street": "4163 E 470",
        "city": "Pryor",
        "postal_code": "74361",
        "state": "Oklahoma",
        "reviews": "65",
        "working_hours": "{\"Monday\": \"7AM-6PM\", \"Tuesday\": \"7AM-6PM\", \"Wednesday\": \"7AM-6PM\", \"Thursday\": \"7AM-6PM\", \"Friday\": \"7AM-6PM\", \"Saturday\": \"7AM-6PM\", \"Sunday\": \"8AM-4PM\"}",
        "imported_at": "2025-08-23 16:58:33.980573+00",
        "dup_key": "outback farm|pryor|oklahoma",
        "quality_score": "135",
        "is_primary": "TRUE",
        "latitude": "36.3370847",
        "longitude": "-95.1807415",
        "coord": "0101000020E6100000EBE1CB4491CB57C0B13D6997252B4240",
        "has upick": "Unknown",
        "u-pick offerings": "",
        "u-pick sources": ""
      },
      {
        "id": "1253",
        "name": "Dowless Blueberry Farm",
        "site": "",
        "phone": "904-772-1369",
        "full_address": "7010 Ricker Rd, Jacksonville, FL 32244",
        "street": "7010 Ricker Rd",
        "city": "Jacksonville",
        "postal_code": "32244",
        "state": "Florida",
        "reviews": "65",
        "working_hours": "{\"Monday\": \"Closed\", \"Tuesday\": \"Closed\", \"Wednesday\": \"6-10AM\", \"Thursday\": \"Closed\", \"Friday\": \"Closed\", \"Saturday\": \"6-10AM\", \"Sunday\": \"Closed\"}",
        "imported_at": "2025-08-23 16:58:33.980573+00",
        "dup_key": "dowless blueberry farm|jacksonville|florida",
        "quality_score": "85",
        "is_primary": "TRUE",
        "latitude": "30.22348",
        "longitude": "-81.772977",
        "coord": "0101000020E6100000DAE38574787154C0614F3BFC35393E40",
        "has upick": "Unknown",
        "u-pick offerings": "",
        "u-pick sources": ""
      },
      {
        "id": "1269",
        "name": "Hoen's Orchard",
        "site": "http://www.hoensorchard.com/",
        "phone": "419-822-4080",
        "full_address": "12540 Township Rd 7-2, Delta, OH 43515",
        "street": "12540 Township Rd 7-2",
        "city": "Delta",
        "postal_code": "43515",
        "state": "Ohio",
        "reviews": "64",
        "working_hours": "{\"Monday\": \"9AM-5PM\", \"Tuesday\": \"9AM-5PM\", \"Wednesday\": \"9AM-5PM\", \"Thursday\": \"9AM-5PM\", \"Friday\": \"9AM-5PM\", \"Saturday\": \"9AM-5PM\", \"Sunday\": \"9AM-5PM\"}",
        "imported_at": "2025-08-23 16:58:33.980573+00",
        "dup_key": "hoen's orchard|delta|ohio",
        "quality_score": "134",
        "is_primary": "TRUE",
        "latitude": "41.651122",
        "longitude": "-84.003737",
        "coord": "0101000020E610000040321D3A3D0055C062DA37F757D34440",
        "has upick": "Unknown",
        "u-pick offerings": "",
        "u-pick sources": ""
      },
      {
        "id": "1291",
        "name": "Annie's Berry Farm",
        "site": "",
        "phone": "360-263-2289",
        "full_address": "39609 NE 41st Ave, La Center, WA 98629",
        "street": "39609 NE 41st Ave",
        "city": "La Center",
        "postal_code": "98629",
        "state": "Washington",
        "reviews": "62",
        "working_hours": "",
        "imported_at": "2025-08-23 16:58:33.980573+00",
        "dup_key": "annie's berry farm|la center|washington",
        "quality_score": "82",
        "is_primary": "TRUE",
        "latitude": "45.9072975",
        "longitude": "-122.6261839",
        "coord": "0101000020E610000008F2A26513A85EC00C1F115322F44640",
        "has upick": "Unknown",
        "u-pick offerings": "",
        "u-pick sources": ""
      },
      {
        "id": "1182",
        "name": "Liberty Delight Farms",
        "site": "https://libertydelightfarms.com/",
        "phone": "410-833-1796",
        "full_address": "1633 Oakland Rd, Reisterstown, MD 21136",
        "street": "1633 Oakland Rd",
        "city": "Reisterstown",
        "postal_code": "21136",
        "state": "Maryland",
        "reviews": "72",
        "working_hours": "",
        "imported_at": "2025-08-23 16:58:33.980573+00",
        "dup_key": "liberty delight farms|reisterstown|maryland",
        "quality_score": "142",
        "is_primary": "TRUE",
        "latitude": "39.42277",
        "longitude": "-76.858937",
        "coord": "0101000020E6100000C214E5D2F83653C06EDDCD531DB64340",
        "has upick": "Unknown",
        "u-pick offerings": "",
        "u-pick sources": ""
      },
      {
        "id": "1127",
        "name": "Burns Farm At Aldersyde",
        "site": "http://www.facebook.com/burnsfarmupick",
        "phone": "503-705-1833",
        "full_address": "2318 SE 302nd Ave, Troutdale, OR 97060",
        "street": "2318 SE 302nd Ave",
        "city": "Troutdale",
        "postal_code": "97060",
        "state": "Oregon",
        "reviews": "78",
        "working_hours": "{\"Sunday\": \"10AM-4PM\", \"Monday\": \"10AM-6PM\", \"Tuesday\": \"10AM-6PM\", \"Wednesday\": \"10AM-6PM\", \"Thursday\": \"10AM-6PM\", \"Friday\": \"10AM-6PM\", \"Saturday\": \"10AM-6PM\"}",
        "imported_at": "2025-08-23 16:58:33.980573+00",
        "dup_key": "burns farm at aldersyde|troutdale|oregon",
        "quality_score": "148",
        "is_primary": "TRUE",
        "latitude": "45.5054693",
        "longitude": "-122.3517351",
        "coord": "0101000020E6100000BDD6EFD382965EC0E650D037B3C04640",
        "has upick": "Unknown",
        "u-pick offerings": "",
        "u-pick sources": ""
      },
      {
        "id": "1171",
        "name": "Lodi Blooms - The Orchard Experience - Cherry U-Pick",
        "site": "http://www.lodiblooms.com/",
        "phone": "209-642-4295",
        "full_address": "11560 N Lower Sacramento Rd, Lodi, CA 95242",
        "street": "11560 N Lower Sacramento Rd",
        "city": "Lodi",
        "postal_code": "95242",
        "state": "California",
        "reviews": "72",
        "working_hours": "",
        "imported_at": "2025-08-23 16:58:33.980573+00",
        "dup_key": "lodi blooms - the orchard experience - cherry u-pick|lodi|california",
        "quality_score": "142",
        "is_primary": "TRUE",
        "latitude": "38.0721314",
        "longitude": "-121.3100783",
        "coord": "0101000020E6100000C16CA752D8535EC0E2010A9A3B094340",
        "has upick": "Unknown",
        "u-pick offerings": "",
        "u-pick sources": ""
      },
      {
        "id": "1166",
        "name": "Thierbach Orchards Apple Junction",
        "site": "http://thierbachorchards.com/AppleJunction.html",
        "phone": "636-433-2757",
        "full_address": "18427 State Hwy 47, Marthasville, MO 63357",
        "street": "18427 State Hwy 47",
        "city": "Marthasville",
        "postal_code": "63357",
        "state": "Missouri",
        "reviews": "73",
        "working_hours": "{\"Monday\": \"9AM-6PM\", \"Tuesday\": \"9AM-6PM\", \"Wednesday\": \"9AM-6PM\", \"Thursday\": \"9AM-6PM\", \"Friday\": \"9AM-6PM\", \"Saturday\": \"9AM-6PM\", \"Sunday\": \"9AM-6PM\"}",
        "imported_at": "2025-08-23 16:58:33.980573+00",
        "dup_key": "thierbach orchards apple junction|marthasville|missouri",
        "quality_score": "143",
        "is_primary": "TRUE",
        "latitude": "38.6715916",
        "longitude": "-91.123494",
        "coord": "0101000020E610000024D06053E7C756C05822ABB6F6554340",
        "has upick": "Unknown",
        "u-pick offerings": "",
        "u-pick sources": ""
      },
      {
        "id": "1275",
        "name": "Chandler Pond Farm",
        "site": "http://www.chandlerpondfarm.com/",
        "phone": "802-745-8607",
        "full_address": "528 Burroughs Rd, Wheelock, VT 05851",
        "street": "528 Burroughs Rd",
        "city": "Wheelock",
        "postal_code": "5851",
        "state": "Vermont",
        "reviews": "63",
        "working_hours": "{\"Monday\": \"8AM-8PM\", \"Tuesday\": \"8AM-8PM\", \"Wednesday\": \"8AM-8PM\", \"Thursday\": \"8AM-8PM\", \"Friday\": \"8AM-8PM\", \"Saturday\": \"8AM-8PM\", \"Sunday\": \"8AM-8PM\"}",
        "imported_at": "2025-08-23 16:58:33.980573+00",
        "dup_key": "chandler pond farm|wheelock|vermont",
        "quality_score": "133",
        "is_primary": "TRUE",
        "latitude": "44.5382311",
        "longitude": "-72.0897531",
        "coord": "0101000020E6100000BC4DC983BE0552C05518B6C1E4444640",
        "has upick": "Unknown",
        "u-pick offerings": "",
        "u-pick sources": ""
      },
      {
        "id": "1204",
        "name": "Happy Hollow U-Pick",
        "site": "",
        "phone": "",
        "full_address": "17325 20th Ave N, East Moline, IL 61244",
        "street": "17325 20th Ave N",
        "city": "East Moline",
        "postal_code": "61244",
        "state": "Illinois",
        "reviews": "69",
        "working_hours": "",
        "imported_at": "2025-08-23 16:58:33.980573+00",
        "dup_key": "happy hollow u-pick|east moline|illinois",
        "quality_score": "69",
        "is_primary": "TRUE",
        "latitude": "41.5371016",
        "longitude": "-90.3747251",
        "coord": "0101000020E6100000615FFC7EFB9756C08C50C7BEBFC44440",
        "has upick": "Unknown",
        "u-pick offerings": "",
        "u-pick sources": ""
      },
      {
        "id": "1107",
        "name": "Carmody's Farm",
        "site": "",
        "phone": "203-272-9405",
        "full_address": "1735 Peck Ln, Cheshire, CT 06410",
        "street": "1735 Peck Ln",
        "city": "Cheshire",
        "postal_code": "6410",
        "state": "Connecticut",
        "reviews": "80",
        "working_hours": "{\"Monday\": \"8AM-7PM\", \"Tuesday\": \"8AM-7PM\", \"Wednesday\": \"8AM-7PM\", \"Thursday\": \"8AM-7PM\", \"Friday\": \"8AM-7PM\", \"Saturday\": \"8AM-7PM\", \"Sunday\": \"8AM-7PM\"}",
        "imported_at": "2025-08-23 16:58:33.980573+00",
        "dup_key": "carmody's farm|cheshire|connecticut",
        "quality_score": "100",
        "is_primary": "TRUE",
        "latitude": "41.5540918",
        "longitude": "-72.90427",
        "coord": "0101000020E61000004030478FDF3952C0A9FDE77AECC64440",
        "has upick": "Unknown",
        "u-pick offerings": "",
        "u-pick sources": ""
      },
      {
        "id": "1117",
        "name": "Agape House Berry Farm",
        "site": "https://www.agapehouseberryfarm.com/",
        "phone": "405-628-8092",
        "full_address": "10912 S Czech Hall Rd, Mustang, OK 73064",
        "street": "10912 S Czech Hall Rd",
        "city": "Mustang",
        "postal_code": "73064",
        "state": "Oklahoma",
        "reviews": "79",
        "working_hours": "",
        "imported_at": "2025-08-23 16:58:33.980573+00",
        "dup_key": "agape house berry farm|mustang|oklahoma",
        "quality_score": "149",
        "is_primary": "TRUE",
        "latitude": "35.357903",
        "longitude": "-97.741065",
        "coord": "0101000020E610000074CDE49B6D6F58C0F511F8C3CFAD4140",
        "has upick": "Unknown",
        "u-pick offerings": "",
        "u-pick sources": ""
      }
    ],
    "count": 20,
    "status": "ready_for_research"
  },
  "improved_agent_3": {
    "farms": [
      {
        "id": "1238",
        "name": "Drewry Farm & Orchards",
        "site": "",
        "phone": "",
        "full_address": "267 Vaughns Cir, Dover, AR 72837",
        "street": "267 Vaughns Cir",
        "city": "Dover",
        "postal_code": "72837",
        "state": "Arkansas",
        "reviews": "66",
        "working_hours": "{\"Monday\": \"Closed\", \"Tuesday\": \"Closed\", \"Wednesday\": \"Closed\", \"Thursday\": \"Closed\", \"Friday\": \"Closed\", \"Saturday\": \"7AM-12PM\", \"Sunday\": \"Closed\"}",
        "imported_at": "2025-08-23 16:58:33.980573+00",
        "dup_key": "drewry farm & orchards|dover|arkansas",
        "quality_score": "66",
        "is_primary": "TRUE",
        "latitude": "35.392901",
        "longitude": "-93.059397",
        "coord": "0101000020E6100000C01E1329CD4357C069C878944AB24140",
        "has upick": "Unknown",
        "u-pick offerings": "",
        "u-pick sources": ""
      },
      {
        "id": "1103",
        "name": "Mt. Hood Organic Farms",
        "site": "https://www.mthoodorganicfarms.com/",
        "phone": "541-490-7487",
        "full_address": "7130 Smullin Dr, Mt Hood, OR 97041",
        "street": "7130 Smullin Dr",
        "city": "Mt Hood",
        "postal_code": "97041",
        "state": "Oregon",
        "reviews": "80",
        "working_hours": "",
        "imported_at": "2025-08-23 16:58:33.980573+00",
        "dup_key": "mt. hood organic farms|mt hood|oregon",
        "quality_score": "150",
        "is_primary": "TRUE",
        "latitude": "45.5047222",
        "longitude": "-121.5608333",
        "coord": "0101000020E61000007F805AB1E4635EC05848AFBC9AC04640",
        "has upick": "Unknown",
        "u-pick offerings": "",
        "u-pick sources": ""
      },
      {
        "id": "1159",
        "name": "Piper's Orchard",
        "site": "https://pipersorchard.org/",
        "phone": "206-684-0877",
        "full_address": "950 NW Carkeek Park Rd, Seattle, WA 98177",
        "street": "950 NW Carkeek Park Rd",
        "city": "Seattle",
        "postal_code": "98177",
        "state": "Washington",
        "reviews": "74",
        "working_hours": "{\"Sunday\": \"6AM-10PM\", \"Monday\": \"6AM-10PM\", \"Tuesday\": \"6AM-10PM\", \"Wednesday\": \"6AM-10PM\", \"Thursday\": \"6AM-10PM\", \"Friday\": \"6AM-10PM\", \"Saturday\": \"6AM-10PM\"}",
        "imported_at": "2025-08-23 16:58:33.980573+00",
        "dup_key": "piper's orchard|seattle|washington",
        "quality_score": "144",
        "is_primary": "TRUE",
        "latitude": "47.7097458",
        "longitude": "-122.3667389",
        "coord": "0101000020E6100000F26A6FA678975EC097BC4BF3D8DA4740",
        "has upick": "Unknown",
        "u-pick offerings": "",
        "u-pick sources": ""
      },
      {
        "id": "1109",
        "name": "Uluwehi Coffee Farm",
        "site": "http://www.uluwehicoffeefarm.com/",
        "phone": "808-435-5007",
        "full_address": "75-5410 Uluwehi Pl, Holualoa, HI 96725",
        "street": "75-5410 Uluwehi Pl",
        "city": "Holualoa",
        "postal_code": "96725",
        "state": "Hawaii",
        "reviews": "80",
        "working_hours": "{\"Sunday\": \"9AM-5PM\", \"Monday\": \"9AM-5PM\", \"Tuesday\": \"9AM-5PM\", \"Wednesday\": \"9AM-5PM\", \"Thursday\": \"9AM-5PM\", \"Friday\": \"9AM-5PM\", \"Saturday\": \"9AM-5PM\"}",
        "imported_at": "2025-08-23 16:58:33.980573+00",
        "dup_key": "uluwehi coffee farm|holualoa|hawaii",
        "quality_score": "150",
        "is_primary": "TRUE",
        "latitude": "19.6552909",
        "longitude": "-155.947701",
        "coord": "0101000020E61000005E2C0C91537E63C0CDDDF824C1A73340",
        "has upick": "Unknown",
        "u-pick offerings": "",
        "u-pick sources": ""
      },
      {
        "id": "1190",
        "name": "Creekside Farm",
        "site": "http://www.creeksidefarmberries.com/",
        "phone": "919-965-9969",
        "full_address": "300 Pine Tree Rd, Selma, NC 27576",
        "street": "300 Pine Tree Rd",
        "city": "Selma",
        "postal_code": "27576",
        "state": "North Carolina",
        "reviews": "71",
        "working_hours": "",
        "imported_at": "2025-08-23 16:58:33.980573+00",
        "dup_key": "creekside farm|selma|north carolina",
        "quality_score": "141",
        "is_primary": "TRUE",
        "latitude": "35.6838796",
        "longitude": "-78.2984742",
        "coord": "0101000020E6100000C9EC87331A9353C06633E25D89D74140",
        "has upick": "Unknown",
        "u-pick offerings": "",
        "u-pick sources": ""
      },
      {
        "id": "1116",
        "name": "Wheeler's Orchard",
        "site": "https://www.wheelersorchard.com/",
        "phone": "423-949-4255",
        "full_address": "956 Wheeler Rd, Dunlap, TN 37327",
        "street": "956 Wheeler Rd",
        "city": "Dunlap",
        "postal_code": "37327",
        "state": "Tennessee",
        "reviews": "79",
        "working_hours": "{\"Monday\": \"Closed\", \"Tuesday\": \"Closed\", \"Wednesday\": \"Closed\", \"Thursday\": \"10AM-6PM\", \"Friday\": \"10AM-6PM\", \"Saturday\": \"10AM-6PM\", \"Sunday\": \"12-6PM\"}",
        "imported_at": "2025-08-23 16:58:33.980573+00",
        "dup_key": "wheeler's orchard|dunlap|tennessee",
        "quality_score": "149",
        "is_primary": "TRUE",
        "latitude": "35.4118825",
        "longitude": "-85.4240796",
        "coord": "0101000020E6100000A639C31E245B55C0B9A5D590B8B44140",
        "has upick": "Unknown",
        "u-pick offerings": "",
        "u-pick sources": ""
      },
      {
        "id": "1251",
        "name": "Full Belly Farm",
        "site": "http://fullbellyfarmvt.com/",
        "phone": "802-453-3793",
        "full_address": "686 Davis Rd, Hinesburg, VT 05461",
        "street": "686 Davis Rd",
        "city": "Hinesburg",
        "postal_code": "5461",
        "state": "Vermont",
        "reviews": "65",
        "working_hours": "{\"Monday\": \"Closed\", \"Tuesday\": \"9AM-6PM\", \"Wednesday\": \"9AM-6PM\", \"Thursday\": \"9AM-6PM\", \"Friday\": \"9AM-6PM\", \"Saturday\": \"9AM-5PM\", \"Sunday\": \"9AM-5PM\"}",
        "imported_at": "2025-08-23 16:58:33.980573+00",
        "dup_key": "full belly farm|hinesburg|vermont",
        "quality_score": "135",
        "is_primary": "TRUE",
        "latitude": "44.2651726",
        "longitude": "-73.1333083",
        "coord": "0101000020E61000004332891F884852C0CC65FE2CF1214640",
        "has upick": "Unknown",
        "u-pick offerings": "",
        "u-pick sources": ""
      },
      {
        "id": "1189",
        "name": "Mead Orchards",
        "site": "http://meadorchards.com/",
        "phone": "845-756-5641",
        "full_address": "15 Scism Rd, Tivoli, NY 12583",
        "street": "15 Scism Rd",
        "city": "Tivoli",
        "postal_code": "12583",
        "state": "New York",
        "reviews": "71",
        "working_hours": "{\"Monday\": \"Closed\", \"Tuesday\": \"Closed\", \"Wednesday\": \"Closed\", \"Thursday\": \"Closed\", \"Friday\": \"10AM-2PM\", \"Saturday\": \"10AM-4PM\", \"Sunday\": \"10AM-4PM\"}",
        "imported_at": "2025-08-23 16:58:33.980573+00",
        "dup_key": "mead orchards|tivoli|new york",
        "quality_score": "141",
        "is_primary": "TRUE",
        "latitude": "42.04425",
        "longitude": "-73.8545456",
        "coord": "0101000020E6100000343C07E0B07652C08B6CE7FBA9054540",
        "has upick": "Unknown",
        "u-pick offerings": "",
        "u-pick sources": ""
      },
      {
        "id": "1146",
        "name": "Whitehead\u2019s Blueberry Farm, Inc.",
        "site": "http://www.whiteheadsblueberryfarm.com/",
        "phone": "863-860-4575",
        "full_address": "1024 Macon Rd, Winter Haven, FL 33884",
        "street": "1024 Macon Rd",
        "city": "Winter Haven",
        "postal_code": "33884",
        "state": "Florida",
        "reviews": "75",
        "working_hours": "",
        "imported_at": "2025-08-23 16:58:33.980573+00",
        "dup_key": "whitehead\u2019s blueberry farm, inc.|winter haven|florida",
        "quality_score": "145",
        "is_primary": "TRUE",
        "latitude": "27.9709433",
        "longitude": "-81.718277",
        "coord": "0101000020E6100000041E1840F86D54C033C577BD8FF83B40",
        "has upick": "Unknown",
        "u-pick offerings": "",
        "u-pick sources": ""
      },
      {
        "id": "1136",
        "name": "Oneida Nation Apple Orchard",
        "site": "https://www.facebook.com/OneidaApples/",
        "phone": "920-869-2468",
        "full_address": "3976 W Mason St, Hobart, WI 54155",
        "street": "3976 W Mason St",
        "city": "Hobart",
        "postal_code": "54155",
        "state": "Wisconsin",
        "reviews": "76",
        "working_hours": "{\"Monday\": \"Closed\", \"Tuesday\": \"11AM-4PM\", \"Wednesday\": \"11AM-4PM\", \"Thursday\": \"11AM-4PM\", \"Friday\": \"Closed\", \"Saturday\": \"Closed\", \"Sunday\": \"Closed\"}",
        "imported_at": "2025-08-23 16:58:33.980573+00",
        "dup_key": "oneida nation apple orchard|hobart|wisconsin",
        "quality_score": "146",
        "is_primary": "TRUE",
        "latitude": "44.5089634",
        "longitude": "-88.1685285",
        "coord": "0101000020E610000069FCC22BC90A56C034EE72B625414640",
        "has upick": "Unknown",
        "u-pick offerings": "",
        "u-pick sources": ""
      },
      {
        "id": "1123",
        "name": "Kleinke's Farm",
        "site": "http://www.kleinkesfarm.com/",
        "phone": "518-475-7729",
        "full_address": "96 Kenwood Ave, Glenmont, NY 12077",
        "street": "96 Kenwood Ave",
        "city": "Glenmont",
        "postal_code": "12077",
        "state": "New York",
        "reviews": "78",
        "working_hours": "{\"Monday\": \"10AM-6PM\", \"Tuesday\": \"10AM-6PM\", \"Wednesday\": \"10AM-6PM\", \"Thursday\": \"10AM-6PM\", \"Friday\": \"10AM-6PM\", \"Saturday\": \"10AM-6PM\", \"Sunday\": \"10AM-4PM\"}",
        "imported_at": "2025-08-23 16:58:33.980573+00",
        "dup_key": "kleinke's farm|glenmont|new york",
        "quality_score": "148",
        "is_primary": "TRUE",
        "latitude": "42.6205808",
        "longitude": "-73.8022942",
        "coord": "0101000020E61000004FB1C5C9587352C0444310316F4F4540",
        "has upick": "Unknown",
        "u-pick offerings": "",
        "u-pick sources": ""
      },
      {
        "id": "1102",
        "name": "Mabe's Berry Farm",
        "site": "https://mabesberryfarm.com/",
        "phone": "336-591-4785",
        "full_address": "1652 Greenfield Rd, Walnut Cove, NC 27052",
        "street": "1652 Greenfield Rd",
        "city": "Walnut Cove",
        "postal_code": "27052",
        "state": "North Carolina",
        "reviews": "80",
        "working_hours": "",
        "imported_at": "2025-08-23 16:58:33.980573+00",
        "dup_key": "mabe's berry farm|walnut cove|north carolina",
        "quality_score": "150",
        "is_primary": "TRUE",
        "latitude": "36.3001792",
        "longitude": "-80.2020139",
        "coord": "0101000020E61000009875B5CBED0C54C04078A3456C264240",
        "has upick": "Unknown",
        "u-pick offerings": "",
        "u-pick sources": ""
      },
      {
        "id": "1149",
        "name": "Potomac Vegetable Farms",
        "site": "http://potomacvegetablefarms.com/",
        "phone": "703-759-2119",
        "full_address": "PVF East Farmstand 9627 Leesburg Pike, Newcombs Farm Rd, Vienna, VA 22182",
        "street": "PVF East Farmstand 9627 Leesburg Pike, Newcombs Farm Rd",
        "city": "Vienna",
        "postal_code": "22182",
        "state": "VA",
        "reviews": "75",
        "working_hours": "{\"Monday\": \"Closed\", \"Tuesday\": \"10AM-5PM\", \"Wednesday\": \"10AM-5PM\", \"Thursday\": \"10AM-5PM\", \"Friday\": \"10AM-5PM\", \"Saturday\": \"10AM-5PM\", \"Sunday\": \"10AM-5PM\"}",
        "imported_at": "2025-08-23 16:58:33.980573+00",
        "dup_key": "potomac vegetable farms|vienna|va",
        "quality_score": "145",
        "is_primary": "TRUE",
        "latitude": "38.960347",
        "longitude": "-77.2790607",
        "coord": "0101000020E610000054066921DC5153C0E6E786A6EC7A4340",
        "has upick": "Unknown",
        "u-pick offerings": "",
        "u-pick sources": ""
      },
      {
        "id": "1231",
        "name": "Glossy Fruit Farms",
        "site": "http://www.manta.com/c/mm2jf8r/glossy-fruit-farms-inc",
        "phone": "609-743-4260",
        "full_address": "66 S Myrtle St, Hammonton, NJ 08037",
        "street": "66 S Myrtle St",
        "city": "Hammonton",
        "postal_code": "8037",
        "state": "New Jersey",
        "reviews": "67",
        "working_hours": "{\"Monday\": \"8:30AM-5:30PM\", \"Tuesday\": \"8:30AM-5:30PM\", \"Wednesday\": \"8:30AM-5:30PM\", \"Thursday\": \"8:30AM-5:30PM\", \"Friday\": \"8:30AM-5:30PM\", \"Saturday\": \"8:30AM-5:30PM\", \"Sunday\": \"8:30AM-5:30PM\"}",
        "imported_at": "2025-08-23 16:58:33.980573+00",
        "dup_key": "glossy fruit farms|hammonton|new jersey",
        "quality_score": "137",
        "is_primary": "TRUE",
        "latitude": "39.6693873",
        "longitude": "-74.7736604",
        "coord": "0101000020E6100000750DE9A683B152C0CAEDA87BAED54340",
        "has upick": "Unknown",
        "u-pick offerings": "",
        "u-pick sources": ""
      },
      {
        "id": "1210",
        "name": "B & R Farms",
        "site": "https://www.facebook.com/B-R-Farms-315905635157825/",
        "phone": "570-889-3197",
        "full_address": "129 Strawberry Ln, Ringtown, PA 17967",
        "street": "129 Strawberry Ln",
        "city": "Ringtown",
        "postal_code": "17967",
        "state": "Pennsylvania",
        "reviews": "68",
        "working_hours": "",
        "imported_at": "2025-08-23 16:58:33.980573+00",
        "dup_key": "b & r farms|ringtown|pennsylvania",
        "quality_score": "138",
        "is_primary": "TRUE",
        "latitude": "40.842678",
        "longitude": "-76.227022",
        "coord": "0101000020E61000003D5E4887870E53C0838769DFDC6B4440",
        "has upick": "Unknown",
        "u-pick offerings": "",
        "u-pick sources": ""
      },
      {
        "id": "1147",
        "name": "Home Farm UPick and Events LLC",
        "site": "http://www.homefarm.farm/",
        "phone": "360-566-2181",
        "full_address": "8020 Kickerville Rd, Blaine, WA 98230",
        "street": "8020 Kickerville Rd",
        "city": "Blaine",
        "postal_code": "98230",
        "state": "Washington",
        "reviews": "75",
        "working_hours": "",
        "imported_at": "2025-08-23 16:58:33.980573+00",
        "dup_key": "home farm upick and events llc|blaine|washington",
        "quality_score": "145",
        "is_primary": "TRUE",
        "latitude": "48.932591",
        "longitude": "-122.702961",
        "coord": "0101000020E610000043572250FDAC5EC0A0C552245F774840",
        "has upick": "Unknown",
        "u-pick offerings": "",
        "u-pick sources": ""
      },
      {
        "id": "1249",
        "name": "Ochs Orchard PYO Cash Registers",
        "site": "https://www.ochsorchard.com/",
        "phone": "845-986-1591",
        "full_address": "Reservoir Rd, Warwick, NY 10990",
        "street": "Reservoir Rd",
        "city": "Warwick",
        "postal_code": "10990",
        "state": "New York",
        "reviews": "66",
        "working_hours": "",
        "imported_at": "2025-08-23 16:58:33.980573+00",
        "dup_key": "ochs orchard pyo cash registers|warwick|new york",
        "quality_score": "136",
        "is_primary": "TRUE",
        "latitude": "41.2317164",
        "longitude": "-74.3649751",
        "coord": "0101000020E6100000AD9685C05B9752C033F90BE2A89D4440",
        "has upick": "Unknown",
        "u-pick offerings": "",
        "u-pick sources": ""
      },
      {
        "id": "1145",
        "name": "Hyde Farms",
        "site": "https://hydefarms.net/",
        "phone": "423-667-6981",
        "full_address": "7545 US-411, Greenback, TN 37742",
        "street": "7545 US-411",
        "city": "Greenback",
        "postal_code": "37742",
        "state": "Tennessee",
        "reviews": "75",
        "working_hours": "{\"Monday\": \"9AM-6PM\", \"Tuesday\": \"9AM-6PM\", \"Wednesday\": \"9AM-6PM\", \"Thursday\": \"9AM-6PM\", \"Friday\": \"9AM-6PM\", \"Saturday\": \"9AM-5PM\", \"Sunday\": \"Closed\"}",
        "imported_at": "2025-08-23 16:58:33.980573+00",
        "dup_key": "hyde farms|greenback|tennessee",
        "quality_score": "145",
        "is_primary": "TRUE",
        "latitude": "35.6230111",
        "longitude": "-84.1858954",
        "coord": "0101000020E610000084DED1B5E50B55C0C2C5E5D3BECF4140",
        "has upick": "Unknown",
        "u-pick offerings": "",
        "u-pick sources": ""
      },
      {
        "id": "1259",
        "name": "The Berry Basket Farm",
        "site": "http://www.theberrybasketfarm.com/",
        "phone": "319-325-7542",
        "full_address": "2683 Hwy 1 SW, Iowa City, IA 52240",
        "street": "2683 Hwy 1 SW",
        "city": "Iowa City",
        "postal_code": "52240",
        "state": "Iowa",
        "reviews": "65",
        "working_hours": "",
        "imported_at": "2025-08-23 16:58:33.980573+00",
        "dup_key": "the berry basket farm|iowa city|iowa",
        "quality_score": "135",
        "is_primary": "TRUE",
        "latitude": "41.6027151",
        "longitude": "-91.669047",
        "coord": "0101000020E6100000291F82AAD1EA56C016A7B5C425CD4440",
        "has upick": "Unknown",
        "u-pick offerings": "",
        "u-pick sources": ""
      },
      {
        "id": "1141",
        "name": "County Line Orchard",
        "site": "https://www.countylineorchardpa.com/home",
        "phone": "610-756-6411",
        "full_address": "9200 Kings Hwy, Kempton, PA 19529",
        "street": "9200 Kings Hwy",
        "city": "Kempton",
        "postal_code": "19529",
        "state": "Pennsylvania",
        "reviews": "75",
        "working_hours": "{\"Monday\": \"Closed\", \"Tuesday\": \"Closed\", \"Wednesday\": \"Closed\", \"Thursday\": \"Closed\", \"Friday\": \"9AM-5PM\", \"Saturday\": \"9AM-5PM\", \"Sunday\": \"12-5PM\"}",
        "imported_at": "2025-08-23 16:58:33.980573+00",
        "dup_key": "county line orchard|kempton|pennsylvania",
        "quality_score": "145",
        "is_primary": "TRUE",
        "latitude": "40.6489258",
        "longitude": "-75.849106",
        "coord": "0101000020E61000009735B1C057F652C0EC43280010534440",
        "has upick": "Unknown",
        "u-pick offerings": "",
        "u-pick sources": ""
      }
    ],
    "count": 20,
    "status": "ready_for_research"
  },
  "improved_agent_4": {
    "farms": [
      {
        "id": "1288",
        "name": "Carlsons Farm Stand",
        "site": "",
        "phone": "631-747-7338",
        "full_address": "472 Elwood Rd, East Northport, NY 11731",
        "street": "472 Elwood Rd",
        "city": "East Northport",
        "postal_code": "11731",
        "state": "New York",
        "reviews": "62",
        "working_hours": "{\"Monday\": \"9AM-6PM\", \"Tuesday\": \"9AM-6PM\", \"Wednesday\": \"9AM-6PM\", \"Thursday\": \"9AM-6PM\", \"Friday\": \"9AM-6PM\", \"Saturday\": \"9AM-6PM\", \"Sunday\": \"9AM-6PM\"}",
        "imported_at": "2025-08-23 16:58:33.980573+00",
        "dup_key": "carlsons farm stand|east northport|new york",
        "quality_score": "82",
        "is_primary": "TRUE",
        "latitude": "40.8558865",
        "longitude": "-73.3339227",
        "coord": "0101000020E610000017F950FD5E5552C0404B57B08D6D4440",
        "has upick": "Unknown",
        "u-pick offerings": "",
        "u-pick sources": ""
      },
      {
        "id": "1244",
        "name": "Starr Farm",
        "site": "http://www.starrfarm1.com/",
        "phone": "503-887-7986",
        "full_address": "9131 8340 SW River Rd, Hillsboro, OR 97123",
        "street": "9131 8340 SW River Rd",
        "city": "Hillsboro",
        "postal_code": "97123",
        "state": "Oregon",
        "reviews": "66",
        "working_hours": "{\"Sunday\": \"7AM-7PM\", \"Monday\": \"Closed\", \"Tuesday\": \"7AM-7PM\", \"Wednesday\": \"7AM-7PM\", \"Thursday\": \"7AM-7PM\", \"Friday\": \"7AM-7PM\", \"Saturday\": \"7AM-7PM\"}",
        "imported_at": "2025-08-23 16:58:33.980573+00",
        "dup_key": "starr farm|hillsboro|oregon",
        "quality_score": "136",
        "is_primary": "TRUE",
        "latitude": "45.4592431",
        "longitude": "-122.9376188",
        "coord": "0101000020E6100000588748F201BC5EC0F1B4577AC8BA4640",
        "has upick": "Unknown",
        "u-pick offerings": "",
        "u-pick sources": ""
      },
      {
        "id": "1110",
        "name": "Granny May's Strawberry Farm",
        "site": "https://gmstrawberries.squarespace.com/?mibextid=xHtp59",
        "phone": "916-300-9291",
        "full_address": "7246 Auburn Folsom Rd, Granite Bay, CA 95746",
        "street": "7246 Auburn Folsom Rd",
        "city": "Granite Bay",
        "postal_code": "95746",
        "state": "California",
        "reviews": "79",
        "working_hours": "{\"Sunday\": \"9AM-5PM\", \"Monday\": \"9AM-5PM\", \"Tuesday\": \"9AM-5PM\", \"Wednesday\": \"9AM-5PM\", \"Thursday\": \"9AM-5PM\", \"Friday\": \"9AM-5PM\", \"Saturday\": \"9AM-5PM\"}",
        "imported_at": "2025-08-23 16:58:33.980573+00",
        "dup_key": "granny may's strawberry farm|granite bay|california",
        "quality_score": "149",
        "is_primary": "TRUE",
        "latitude": "38.7601308",
        "longitude": "-121.1644752",
        "coord": "0101000020E61000003240FDC2864A5EC056574FF74B614340",
        "has upick": "Unknown",
        "u-pick offerings": "",
        "u-pick sources": ""
      },
      {
        "id": "1247",
        "name": "Otow Orchard",
        "site": "http://www.otoworchard.com/",
        "phone": "916-791-1656",
        "full_address": "6232 Eureka Rd, Granite Bay, CA 95746",
        "street": "6232 Eureka Rd",
        "city": "Granite Bay",
        "postal_code": "95746",
        "state": "California",
        "reviews": "66",
        "working_hours": "{\"Sunday\": \"11AM-5PM\", \"Monday\": \"Closed\", \"Tuesday\": \"10AM-6PM\", \"Wednesday\": \"10AM-6PM\", \"Thursday\": \"10AM-6PM\", \"Friday\": \"10AM-6PM\", \"Saturday\": \"10AM-6PM\"}",
        "imported_at": "2025-08-23 16:58:33.980573+00",
        "dup_key": "otow orchard|granite bay|california",
        "quality_score": "136",
        "is_primary": "TRUE",
        "latitude": "38.7357804",
        "longitude": "-121.1854367",
        "coord": "0101000020E61000009A7EE431DE4B5EC0D784590D2E5E4340",
        "has upick": "Unknown",
        "u-pick offerings": "",
        "u-pick sources": ""
      },
      {
        "id": "1164",
        "name": "Gem Orchards - Stand #1",
        "site": "http://www.gemorchards.com/",
        "phone": "208-421-1950",
        "full_address": "2571 W South Slope Rd, Emmett, ID 83617",
        "street": "2571 W South Slope Rd",
        "city": "Emmett",
        "postal_code": "83617",
        "state": "Idaho",
        "reviews": "74",
        "working_hours": "{\"Sunday\": \"10AM-4PM\", \"Monday\": \"9AM-5PM\", \"Tuesday\": \"9AM-5PM\", \"Wednesday\": \"9AM-5PM\", \"Thursday\": \"9AM-5PM\", \"Friday\": \"9AM-5PM\", \"Saturday\": \"8AM-5PM\"}",
        "imported_at": "2025-08-23 16:58:33.980573+00",
        "dup_key": "gem orchards - stand #1|emmett|idaho",
        "quality_score": "144",
        "is_primary": "TRUE",
        "latitude": "43.8305268",
        "longitude": "-116.5525708",
        "coord": "0101000020E61000005FAEEA515D235DC0CC39C2B34EEA4540",
        "has upick": "Unknown",
        "u-pick offerings": "",
        "u-pick sources": ""
      },
      {
        "id": "1240",
        "name": "Hallsberry Farms",
        "site": "",
        "phone": "618-559-6127",
        "full_address": "20 United Missionary Ln, Buncombe, IL 62912",
        "street": "20 United Missionary Ln",
        "city": "Buncombe",
        "postal_code": "62912",
        "state": "Illinois",
        "reviews": "66",
        "working_hours": "",
        "imported_at": "2025-08-23 16:58:33.980573+00",
        "dup_key": "hallsberry farms|buncombe|illinois",
        "quality_score": "86",
        "is_primary": "TRUE",
        "latitude": "37.517701",
        "longitude": "-89.091325",
        "coord": "0101000020E6100000A913D044D84556C0A20DC00644C24240",
        "has upick": "Unknown",
        "u-pick offerings": "",
        "u-pick sources": ""
      },
      {
        "id": "1163",
        "name": "Whitefish Stage Organic Farms - Pumpkin Patch & You Pick Berries",
        "site": "",
        "phone": "",
        "full_address": "2288 Whitefish Stage Rd, Kalispell, MT 59901",
        "street": "2288 Whitefish Stage Rd",
        "city": "Kalispell",
        "postal_code": "59901",
        "state": "Montana",
        "reviews": "74",
        "working_hours": "",
        "imported_at": "2025-08-23 16:58:33.980573+00",
        "dup_key": "whitefish stage organic farms - pumpkin patch & you pick berries|kalispell|montana",
        "quality_score": "74",
        "is_primary": "TRUE",
        "latitude": "48.2594733",
        "longitude": "-114.3087175",
        "coord": "0101000020E6100000FC8C0B07C2935CC0B5D7CC6B36214840",
        "has upick": "Unknown",
        "u-pick offerings": "",
        "u-pick sources": ""
      },
      {
        "id": "1169",
        "name": "Clearview Orchards",
        "site": "https://www.facebook.com/ClearviewOrchards/",
        "phone": "517-655-1454",
        "full_address": "1051 Barry Rd, Haslett, MI 48840",
        "street": "1051 Barry Rd",
        "city": "Haslett",
        "postal_code": "48840",
        "state": "Michigan",
        "reviews": "72",
        "working_hours": "",
        "imported_at": "2025-08-23 16:58:33.980573+00",
        "dup_key": "clearview orchards|haslett|michigan",
        "quality_score": "142",
        "is_primary": "TRUE",
        "latitude": "42.7726801",
        "longitude": "-84.3283884",
        "coord": "0101000020E6100000B098C750041555C090E2772EE7624540",
        "has upick": "Unknown",
        "u-pick offerings": "",
        "u-pick sources": ""
      },
      {
        "id": "1179",
        "name": "Blessing Acres Farm",
        "site": "",
        "phone": "330-600-8459",
        "full_address": "6730 Township Rd 362, Millersburg, OH 44654",
        "street": "6730 Township Rd 362",
        "city": "Millersburg",
        "postal_code": "44654",
        "state": "Ohio",
        "reviews": "72",
        "working_hours": "{\"Monday\": \"9AM-5PM\", \"Tuesday\": \"9AM-5PM\", \"Wednesday\": \"9AM-5PM\", \"Thursday\": \"9AM-5PM\", \"Friday\": \"9AM-5PM\", \"Saturday\": \"9AM-4PM\", \"Sunday\": \"Closed\"}",
        "imported_at": "2025-08-23 16:58:33.980573+00",
        "dup_key": "blessing acres farm|millersburg|ohio",
        "quality_score": "92",
        "is_primary": "TRUE",
        "latitude": "40.5937081",
        "longitude": "-81.8007814",
        "coord": "0101000020E6100000AF0FA100407354C0666F84A0FE4B4440",
        "has upick": "Unknown",
        "u-pick offerings": "",
        "u-pick sources": ""
      },
      {
        "id": "1180",
        "name": "Cure Organic Farm",
        "site": "http://www.cureorganicfarm.com/",
        "phone": "",
        "full_address": "7416 Valmont Rd, Boulder, CO 80301",
        "street": "7416 Valmont Rd",
        "city": "Boulder",
        "postal_code": "80301",
        "state": "Colorado",
        "reviews": "72",
        "working_hours": "{\"Sunday\": \"12-5PM\", \"Monday\": \"12-5PM\", \"Tuesday\": \"12-5PM\", \"Wednesday\": \"12-7PM\", \"Thursday\": \"12-5PM\", \"Friday\": \"12-5PM\", \"Saturday\": \"12-5PM\"}",
        "imported_at": "2025-08-23 16:58:33.980573+00",
        "dup_key": "cure organic farm|boulder|colorado",
        "quality_score": "122",
        "is_primary": "TRUE",
        "latitude": "40.0325536",
        "longitude": "-105.1810769",
        "coord": "0101000020E6100000E8E390C3964B5AC0FCAE63B72A044440",
        "has upick": "Unknown",
        "u-pick offerings": "",
        "u-pick sources": ""
      },
      {
        "id": "1270",
        "name": "Tammen Treeberry Farm",
        "site": "http://www.tammentreeberryfarm.net/",
        "phone": "815-458-6264",
        "full_address": "37131 Essex Rd, Wilmington, IL 60481",
        "street": "37131 Essex Rd",
        "city": "Wilmington",
        "postal_code": "60481",
        "state": "Illinois",
        "reviews": "64",
        "working_hours": "",
        "imported_at": "2025-08-23 16:58:33.980573+00",
        "dup_key": "tammen treeberry farm|wilmington|illinois",
        "quality_score": "134",
        "is_primary": "TRUE",
        "latitude": "41.2086079",
        "longitude": "-88.1860854",
        "coord": "0101000020E6100000D6D0BCD2E80B56C0F717E6A9B39A4440",
        "has upick": "Unknown",
        "u-pick offerings": "",
        "u-pick sources": ""
      },
      {
        "id": "1285",
        "name": "Lockbriar Farms",
        "site": "http://www.lockbriarfarms.com/",
        "phone": "410-778-9112",
        "full_address": "10051 Worton Rd, Chestertown, MD 21620",
        "street": "10051 Worton Rd",
        "city": "Chestertown",
        "postal_code": "21620",
        "state": "Maryland",
        "reviews": "62",
        "working_hours": "",
        "imported_at": "2025-08-23 16:58:33.980573+00",
        "dup_key": "lockbriar farms|chestertown|maryland",
        "quality_score": "132",
        "is_primary": "TRUE",
        "latitude": "39.254088",
        "longitude": "-76.078042",
        "coord": "0101000020E6100000B96DDFA3FE0453C02D27A1F485A04340",
        "has upick": "Unknown",
        "u-pick offerings": "",
        "u-pick sources": ""
      },
      {
        "id": "1161",
        "name": "Sherwood Orchards",
        "site": "http://www.sherwoodorchards.com/",
        "phone": "503-625-7705",
        "full_address": "23995 SW Pacific Hwy, Sherwood, OR 97140",
        "street": "23995 SW Pacific Hwy",
        "city": "Sherwood",
        "postal_code": "97140",
        "state": "Oregon",
        "reviews": "74",
        "working_hours": "",
        "imported_at": "2025-08-23 16:58:33.980573+00",
        "dup_key": "sherwood orchards|sherwood|oregon",
        "quality_score": "144",
        "is_primary": "TRUE",
        "latitude": "45.3474405",
        "longitude": "-122.8757228",
        "coord": "0101000020E61000002497A4D70BB85EC0276728EE78AC4640",
        "has upick": "Unknown",
        "u-pick offerings": "",
        "u-pick sources": ""
      },
      {
        "id": "1157",
        "name": "Rich Berry Farm (NJ\ubd80\uc790\ub18d\uc7a5)",
        "site": "http://richberryfarm.com/?utm_source=gmb",
        "phone": "201-923-2117",
        "full_address": "5 Pea Patch Rd, Pemberton Township, NJ 08068",
        "street": "5 Pea Patch Rd",
        "city": "Pemberton Township",
        "postal_code": "8068",
        "state": "New Jersey",
        "reviews": "74",
        "working_hours": "{\"Monday\": \"Closed\", \"Tuesday\": \"Closed\", \"Wednesday\": \"Closed\", \"Thursday\": \"Closed\", \"Friday\": \"Closed\", \"Saturday\": \"8:30AM-4:30PM\", \"Sunday\": \"Closed\"}",
        "imported_at": "2025-08-23 16:58:33.980573+00",
        "dup_key": "rich berry farm (nj\ubd80\uc790\ub18d\uc7a5)|pemberton township|new jersey",
        "quality_score": "144",
        "is_primary": "TRUE",
        "latitude": "39.9242571",
        "longitude": "-74.6154564",
        "coord": "0101000020E61000004A873DA363A752C043CC800E4EF64340",
        "has upick": "Unknown",
        "u-pick offerings": "",
        "u-pick sources": ""
      },
      {
        "id": "1199",
        "name": "Mike's Blueberries Family Farming",
        "site": "",
        "phone": "269-405-2058",
        "full_address": "11160 Farina Rd, New Buffalo, MI 49117",
        "street": "11160 Farina Rd",
        "city": "New Buffalo",
        "postal_code": "49117",
        "state": "Michigan",
        "reviews": "70",
        "working_hours": "",
        "imported_at": "2025-08-23 16:58:33.980573+00",
        "dup_key": "mike's blueberries family farming|new buffalo|michigan",
        "quality_score": "90",
        "is_primary": "TRUE",
        "latitude": "41.7839993",
        "longitude": "-86.7230339",
        "coord": "0101000020E61000008E99FA2F46AE55C01FCBCC165AE44440",
        "has upick": "Unknown",
        "u-pick offerings": "",
        "u-pick sources": ""
      },
      {
        "id": "1198",
        "name": "Closter Farm & Livestock Co.",
        "site": "http://closterfarm.com/",
        "phone": "201-777-1393",
        "full_address": "681 Closter Dock Rd, Closter, NJ 07624",
        "street": "681 Closter Dock Rd",
        "city": "Closter",
        "postal_code": "7624",
        "state": "New Jersey",
        "reviews": "70",
        "working_hours": "{\"Monday\": \"9AM-6PM\", \"Tuesday\": \"9AM-6PM\", \"Wednesday\": \"9AM-6PM\", \"Thursday\": \"9AM-6PM\", \"Friday\": \"9AM-6PM\", \"Saturday\": \"9AM-6PM\", \"Sunday\": \"9AM-6PM\"}",
        "imported_at": "2025-08-23 16:58:33.980573+00",
        "dup_key": "closter farm & livestock co.|closter|new jersey",
        "quality_score": "140",
        "is_primary": "TRUE",
        "latitude": "40.9608134",
        "longitude": "-73.9471396",
        "coord": "0101000020E6100000C7AF69EF9D7C52C08147F9EEFB7A4440",
        "has upick": "Unknown",
        "u-pick offerings": "",
        "u-pick sources": ""
      },
      {
        "id": "1262",
        "name": "Muir Blueberry Farm",
        "site": "",
        "phone": "503-706-9663",
        "full_address": "30350 NW Scotch Church Rd, Hillsboro, OR 97124",
        "street": "30350 NW Scotch Church Rd",
        "city": "Hillsboro",
        "postal_code": "97124",
        "state": "Oregon",
        "reviews": "65",
        "working_hours": "",
        "imported_at": "2025-08-23 16:58:33.980573+00",
        "dup_key": "muir blueberry farm|hillsboro|oregon",
        "quality_score": "85",
        "is_primary": "TRUE",
        "latitude": "45.5712477",
        "longitude": "-122.9891872",
        "coord": "0101000020E6100000CC67D4D74EBF5EC026B506A51EC94640",
        "has upick": "Unknown",
        "u-pick offerings": "",
        "u-pick sources": ""
      },
      {
        "id": "1205",
        "name": "Puckerville Farms",
        "site": "",
        "phone": "708-508-0906",
        "full_address": "13332 Bell Rd, Lemont, IL 60439",
        "street": "13332 Bell Rd",
        "city": "Lemont",
        "postal_code": "60439",
        "state": "Illinois",
        "reviews": "69",
        "working_hours": "{\"Monday\": \"10AM-7PM\", \"Tuesday\": \"10AM-7PM\", \"Wednesday\": \"10AM-7PM\", \"Thursday\": \"10AM-7PM\", \"Friday\": \"10AM-7PM\", \"Saturday\": \"10AM-7PM\", \"Sunday\": \"10AM-7PM\"}",
        "imported_at": "2025-08-23 16:58:33.980573+00",
        "dup_key": "puckerville farms|lemont|illinois",
        "quality_score": "89",
        "is_primary": "TRUE",
        "latitude": "41.6461724",
        "longitude": "-87.9341396",
        "coord": "0101000020E610000081F975F1C8FB55C0F6C9F6C6B5D24440",
        "has upick": "Unknown",
        "u-pick offerings": "",
        "u-pick sources": ""
      },
      {
        "id": "1289",
        "name": "Hillview Farm",
        "site": "",
        "phone": "",
        "full_address": "700-798 Rainbow Dr, Altoona, PA 16601",
        "street": "700-798 Rainbow Dr",
        "city": "Altoona",
        "postal_code": "16601",
        "state": "Pennsylvania",
        "reviews": "62",
        "working_hours": "",
        "imported_at": "2025-08-23 16:58:33.980573+00",
        "dup_key": "hillview farm|altoona|pennsylvania",
        "quality_score": "62",
        "is_primary": "TRUE",
        "latitude": "40.5571178",
        "longitude": "-78.2785566",
        "coord": "0101000020E610000070C50FDFD39153C07F82D5A24F474440",
        "has upick": "Unknown",
        "u-pick offerings": "",
        "u-pick sources": ""
      },
      {
        "id": "1294",
        "name": "Prospect Hill Orchards-Homestead Farm",
        "site": "http://www.prospecthillorchards.com/",
        "phone": "845-795-0001",
        "full_address": "73 Clarks Ln, Milton, NY 12547",
        "street": "73 Clarks Ln",
        "city": "Milton",
        "postal_code": "12547",
        "state": "New York",
        "reviews": "62",
        "working_hours": "",
        "imported_at": "2025-08-23 16:58:33.980573+00",
        "dup_key": "prospect hill orchards-homestead farm|milton|new york",
        "quality_score": "132",
        "is_primary": "TRUE",
        "latitude": "41.6567835",
        "longitude": "-73.9809368",
        "coord": "0101000020E610000058DC24ABC77E52C0B686527B11D44440",
        "has upick": "Unknown",
        "u-pick offerings": "",
        "u-pick sources": ""
      }
    ],
    "count": 20,
    "status": "ready_for_research"
  },
  "improved_agent_5": {
    "farms": [
      {
        "id": "1276",
        "name": "Burek Farms",
        "site": "https://burekfarms.com/",
        "phone": "219-369-6508",
        "full_address": "381 E 400 S, La Porte, IN 46350",
        "street": "381 E 400 S",
        "city": "La Porte",
        "postal_code": "46350",
        "state": "Indiana",
        "reviews": "63",
        "working_hours": "{\"Monday\": \"9AM-7PM\", \"Tuesday\": \"9AM-7PM\", \"Wednesday\": \"9AM-7PM\", \"Thursday\": \"9AM-7PM\", \"Friday\": \"9AM-7PM\", \"Saturday\": \"9AM-7PM\", \"Sunday\": \"9AM-7PM\"}",
        "imported_at": "2025-08-23 16:58:33.980573+00",
        "dup_key": "burek farms|la porte|indiana",
        "quality_score": "133",
        "is_primary": "TRUE",
        "latitude": "41.547073",
        "longitude": "-86.692506",
        "coord": "0101000020E61000002992AF0452AC55C026C3F17C06C64440",
        "has upick": "Unknown",
        "u-pick offerings": "",
        "u-pick sources": ""
      },
      {
        "id": "1100",
        "name": "Gizdich Apple Picking",
        "site": "https://www.gizdich-ranch.com/u-pick",
        "phone": "831-722-1056",
        "full_address": "Watsonville, CA 95076",
        "street": "",
        "city": "Watsonville",
        "postal_code": "95076",
        "state": "California",
        "reviews": "81",
        "working_hours": "{\"Sunday\": \"9AM-5PM\", \"Monday\": \"9AM-5PM\", \"Tuesday\": \"9AM-5PM\", \"Wednesday\": \"9AM-5PM\", \"Thursday\": \"9AM-5PM\", \"Friday\": \"9AM-5PM\", \"Saturday\": \"9AM-5PM\"}",
        "imported_at": "2025-08-23 16:58:33.980573+00",
        "dup_key": "gizdich apple picking|watsonville|california",
        "quality_score": "151",
        "is_primary": "TRUE",
        "latitude": "36.9492",
        "longitude": "-121.7134607",
        "coord": "0101000020E6100000CD5E1157A96D5EC07DAEB6627F794240",
        "has upick": "Unknown",
        "u-pick offerings": "",
        "u-pick sources": ""
      },
      {
        "id": "1272",
        "name": "Lone Maple Farm",
        "site": "https://www.lonemaplefarm.com/",
        "phone": "607-724-6877",
        "full_address": "2001 Hawleyton Rd, Binghamton, NY 13903",
        "street": "2001 Hawleyton Rd",
        "city": "Binghamton",
        "postal_code": "13903",
        "state": "New York",
        "reviews": "63",
        "working_hours": "",
        "imported_at": "2025-08-23 16:58:33.980573+00",
        "dup_key": "lone maple farm|binghamton|new york",
        "quality_score": "133",
        "is_primary": "TRUE",
        "latitude": "42.0696983",
        "longitude": "-75.9225311",
        "coord": "0101000020E6100000BF02E2BF0AFB52C01C8BB7DFEB084540",
        "has upick": "Unknown",
        "u-pick offerings": "",
        "u-pick sources": ""
      },
      {
        "id": "1101",
        "name": "Hill\u2019s Farm",
        "site": "https://www.facebook.com/profile.php?id=100057457239025",
        "phone": "903-402-0804",
        "full_address": "10191 State Hwy 155 S, Big Sandy, TX 75755",
        "street": "10191 State Hwy 155 S",
        "city": "Big Sandy",
        "postal_code": "75755",
        "state": "Texas",
        "reviews": "81",
        "working_hours": "{\"Monday\": \"9AM-6PM\", \"Tuesday\": \"9AM-6PM\", \"Wednesday\": \"9AM-6PM\", \"Thursday\": \"9AM-6PM\", \"Friday\": \"9AM-6PM\", \"Saturday\": \"9AM-6PM\", \"Sunday\": \"1-6PM\"}",
        "imported_at": "2025-08-23 16:58:33.980573+00",
        "dup_key": "hill\u2019s farm|big sandy|texas",
        "quality_score": "151",
        "is_primary": "TRUE",
        "latitude": "32.6252072",
        "longitude": "-95.0605395",
        "coord": "0101000020E61000006F2711E1DFC357C0A39C1ECA06504040",
        "has upick": "Unknown",
        "u-pick offerings": "",
        "u-pick sources": ""
      },
      {
        "id": "1181",
        "name": "Tevepaugh Orchards",
        "site": "https://www.tevepaughorchards.com/",
        "phone": "336-921-3297",
        "full_address": "800 Vannoy Ridge Rd, Moravian Falls, NC 28654",
        "street": "800 Vannoy Ridge Rd",
        "city": "Moravian Falls",
        "postal_code": "28654",
        "state": "North Carolina",
        "reviews": "72",
        "working_hours": "{\"Monday\": \"9AM-5PM\", \"Tuesday\": \"9AM-5PM\", \"Wednesday\": \"9AM-5PM\", \"Thursday\": \"9AM-5PM\", \"Friday\": \"9AM-5PM\", \"Saturday\": \"9AM-5PM\", \"Sunday\": \"Closed\"}",
        "imported_at": "2025-08-23 16:58:33.980573+00",
        "dup_key": "tevepaugh orchards|moravian falls|north carolina",
        "quality_score": "142",
        "is_primary": "TRUE",
        "latitude": "36.074271",
        "longitude": "-81.0807628",
        "coord": "0101000020E6100000F02EBC372B4554C047054EB681094240",
        "has upick": "Unknown",
        "u-pick offerings": "",
        "u-pick sources": ""
      },
      {
        "id": "1129",
        "name": "Sweet Season Farm",
        "site": "https://efreardon.wixsite.com/mysite",
        "phone": "207-542-5008",
        "full_address": "77 Liberty Rd, Washington, ME 04574",
        "street": "77 Liberty Rd",
        "city": "Washington",
        "postal_code": "4574",
        "state": "Maine",
        "reviews": "78",
        "working_hours": "{\"Monday\": \"Closed\", \"Tuesday\": \"Closed\", \"Wednesday\": \"8AM-5PM\", \"Thursday\": \"Closed\", \"Friday\": \"8AM-5PM\", \"Saturday\": \"Closed\", \"Sunday\": \"8AM-5PM\"}",
        "imported_at": "2025-08-23 16:58:33.980573+00",
        "dup_key": "sweet season farm|washington|maine",
        "quality_score": "148",
        "is_primary": "TRUE",
        "latitude": "44.2786682",
        "longitude": "-69.3677763",
        "coord": "0101000020E61000009C2F9BA5895751C0B6B74A66AB234640",
        "has upick": "Unknown",
        "u-pick offerings": "",
        "u-pick sources": ""
      },
      {
        "id": "1282",
        "name": "Yancey Blueberry Silver Springs",
        "site": "https://yanceysblueberryfarm.com/",
        "phone": "352-812-5478",
        "full_address": "11821 SE 1st Street Rd, Silver Springs, FL 34488",
        "street": "11821 SE 1st Street Rd",
        "city": "Silver Springs",
        "postal_code": "34488",
        "state": "Florida",
        "reviews": "63",
        "working_hours": "{\"Monday\": \"8AM-4PM\", \"Tuesday\": \"8AM-4PM\", \"Wednesday\": \"8AM-4PM\", \"Thursday\": \"8AM-4PM\", \"Friday\": \"8AM-4PM\", \"Saturday\": \"8AM-4PM\", \"Sunday\": \"8AM-4PM\"}",
        "imported_at": "2025-08-23 16:58:33.980573+00",
        "dup_key": "yancey blueberry silver springs|silver springs|florida",
        "quality_score": "133",
        "is_primary": "TRUE",
        "latitude": "29.187304",
        "longitude": "-81.957548",
        "coord": "0101000020E61000006A166877487D54C0F568AA27F32F3D40",
        "has upick": "Unknown",
        "u-pick offerings": "",
        "u-pick sources": ""
      },
      {
        "id": "1130",
        "name": "Northwoods Orchards",
        "site": "https://www.facebook.com/NorthwoodsOrchard",
        "phone": "608-847-7028",
        "full_address": "W7428 WI-82 W, Mauston, WI 53948",
        "street": "W7428 WI-82 W",
        "city": "Mauston",
        "postal_code": "53948",
        "state": "Wisconsin",
        "reviews": "78",
        "working_hours": "",
        "imported_at": "2025-08-23 16:58:33.980573+00",
        "dup_key": "northwoods orchards|mauston|wisconsin",
        "quality_score": "148",
        "is_primary": "TRUE",
        "latitude": "43.789696",
        "longitude": "-90.138265",
        "coord": "0101000020E61000009C4B7155D98856C019E42EC214E54540",
        "has upick": "Unknown",
        "u-pick offerings": "",
        "u-pick sources": ""
      },
      {
        "id": "1266",
        "name": "Freewoods Farm",
        "site": "https://www.freewoodsfarm.com/",
        "phone": "843-650-9139",
        "full_address": "9989-10091 Freewoods Rd, Myrtle Beach, SC 29588",
        "street": "9989-10091 Freewoods Rd",
        "city": "Myrtle Beach",
        "postal_code": "29588",
        "state": "South Carolina",
        "reviews": "64",
        "working_hours": "{\"Monday\": \"7AM-5PM\", \"Tuesday\": \"7AM-5PM\", \"Wednesday\": \"7AM-5PM\", \"Thursday\": \"7AM-5PM\", \"Friday\": \"7AM-5PM\", \"Saturday\": \"10AM-5PM\", \"Sunday\": \"Closed\"}",
        "imported_at": "2025-08-23 16:58:33.980573+00",
        "dup_key": "freewoods farm|myrtle beach|south carolina",
        "quality_score": "134",
        "is_primary": "TRUE",
        "latitude": "33.637173",
        "longitude": "-79.0498525",
        "coord": "0101000020E6100000ED478AC830C353C0757286E28ED14040",
        "has upick": "Unknown",
        "u-pick offerings": "",
        "u-pick sources": ""
      },
      {
        "id": "1258",
        "name": "Growing Home Urban Farm",
        "site": "http://www.growinghomeinc.org/",
        "phone": "773-434-7144",
        "full_address": "5814 S Wood St, Chicago, IL 60636",
        "street": "5814 S Wood St",
        "city": "Chicago",
        "postal_code": "60636",
        "state": "Illinois",
        "reviews": "65",
        "working_hours": "{\"Monday\": \"8AM-4PM\", \"Tuesday\": \"8AM-4PM\", \"Wednesday\": \"8AM-4PM\", \"Thursday\": \"8AM-4PM\", \"Friday\": \"8AM-4PM\", \"Saturday\": \"Closed\", \"Sunday\": \"Closed\"}",
        "imported_at": "2025-08-23 16:58:33.980573+00",
        "dup_key": "growing home urban farm|chicago|illinois",
        "quality_score": "135",
        "is_primary": "TRUE",
        "latitude": "41.7879747",
        "longitude": "-87.6694809",
        "coord": "0101000020E6100000FCB26AC6D8EA55C0A749DF5ADCE44440",
        "has upick": "Unknown",
        "u-pick offerings": "",
        "u-pick sources": ""
      },
      {
        "id": "1236",
        "name": "Pine Tree Orchard Strawberry Field",
        "site": "http://www.pinetreeappleorchard.com/",
        "phone": "651-429-7202",
        "full_address": "450 Apple Orchard Rd, White Bear Lake, MN 55110",
        "street": "450 Apple Orchard Rd",
        "city": "White Bear Lake",
        "postal_code": "55110",
        "state": "Minnesota",
        "reviews": "66",
        "working_hours": "",
        "imported_at": "2025-08-23 16:58:33.980573+00",
        "dup_key": "pine tree orchard strawberry field|white bear lake|minnesota",
        "quality_score": "136",
        "is_primary": "TRUE",
        "latitude": "45.106746",
        "longitude": "-92.9550198",
        "coord": "0101000020E610000014025E0B1F3D57C04A7D59DAA98D4640",
        "has upick": "Unknown",
        "u-pick offerings": "",
        "u-pick sources": ""
      },
      {
        "id": "1284",
        "name": "Peck Farm Orchard",
        "site": "http://www.peckfarmorchard.com/",
        "phone": "802-249-1223",
        "full_address": "750 Sibley Rd, East Montpelier, VT 05651",
        "street": "750 Sibley Rd",
        "city": "East Montpelier",
        "postal_code": "5651",
        "state": "Vermont",
        "reviews": "62",
        "working_hours": "",
        "imported_at": "2025-08-23 16:58:33.980573+00",
        "dup_key": "peck farm orchard|east montpelier|vermont",
        "quality_score": "132",
        "is_primary": "TRUE",
        "latitude": "44.3106567",
        "longitude": "-72.5013112",
        "coord": "0101000020E61000009647927B152052C043644799C3274640",
        "has upick": "Unknown",
        "u-pick offerings": "",
        "u-pick sources": ""
      },
      {
        "id": "1152",
        "name": "Hybridoma Organic Fruit Farm",
        "site": "http://www.hybridomafarm.com/",
        "phone": "443-902-0370",
        "full_address": "13734 Baldwin Mill Rd, Baldwin, MD 21013",
        "street": "13734 Baldwin Mill Rd",
        "city": "Baldwin",
        "postal_code": "21013",
        "state": "Maryland",
        "reviews": "74",
        "working_hours": "{\"Monday\": \"Closed\", \"Tuesday\": \"Closed\", \"Wednesday\": \"Closed\", \"Thursday\": \"Closed\", \"Friday\": \"8:30AM-7PM\", \"Saturday\": \"8:30AM-8:30PM\", \"Sunday\": \"Closed\"}",
        "imported_at": "2025-08-23 16:58:33.980573+00",
        "dup_key": "hybridoma organic fruit farm|baldwin|maryland",
        "quality_score": "144",
        "is_primary": "TRUE",
        "latitude": "39.501555",
        "longitude": "-76.4778429",
        "coord": "0101000020E61000000D0863FA941E53C0991249F432C04340",
        "has upick": "Unknown",
        "u-pick offerings": "",
        "u-pick sources": ""
      },
      {
        "id": "1184",
        "name": "Sargeant's Berry Farm",
        "site": "https://upickfarmsusa.com/ks/sedgwick-county/sargeants-berry-farm/",
        "phone": "316-788-1370",
        "full_address": "9836 S Hydraulic St, Haysville, KS 67060",
        "street": "9836 S Hydraulic St",
        "city": "Haysville",
        "postal_code": "67060",
        "state": "Kansas",
        "reviews": "72",
        "working_hours": "{\"Monday\": \"9AM-5:30PM\", \"Tuesday\": \"9AM-5:30PM\", \"Wednesday\": \"9AM-5:30PM\", \"Thursday\": \"9AM-5:30PM\", \"Friday\": \"9AM-5:30PM\", \"Saturday\": \"9AM-4PM\", \"Sunday\": \"Closed\"}",
        "imported_at": "2025-08-23 16:58:33.980573+00",
        "dup_key": "sargeant's berry farm|haysville|kansas",
        "quality_score": "142",
        "is_primary": "TRUE",
        "latitude": "37.5169885",
        "longitude": "-97.3151629",
        "coord": "0101000020E6100000661A03A12B5458C03CF4DDAD2CC24240",
        "has upick": "Unknown",
        "u-pick offerings": "",
        "u-pick sources": ""
      },
      {
        "id": "1186",
        "name": "Glade Link Farms",
        "site": "http://www.gladelink.com/",
        "phone": "301-898-7131",
        "full_address": "12270 Woodsboro Pike, Keymar, MD 21757",
        "street": "12270 Woodsboro Pike",
        "city": "Keymar",
        "postal_code": "21757",
        "state": "Maryland",
        "reviews": "71",
        "working_hours": "{\"Monday\": \"7AM-8PM\", \"Tuesday\": \"7AM-8PM\", \"Wednesday\": \"7AM-8PM\", \"Thursday\": \"7AM-8PM\", \"Friday\": \"7AM-8PM\", \"Saturday\": \"7AM-4PM\", \"Sunday\": \"7AM-4PM\"}",
        "imported_at": "2025-08-23 16:58:33.980573+00",
        "dup_key": "glade link farms|keymar|maryland",
        "quality_score": "141",
        "is_primary": "TRUE",
        "latitude": "39.5698573",
        "longitude": "-77.2852118",
        "coord": "0101000020E6100000BB5BFEE8405253C085718115F1C84340",
        "has upick": "Unknown",
        "u-pick offerings": "",
        "u-pick sources": ""
      },
      {
        "id": "1113",
        "name": "Apple Farm",
        "site": "",
        "phone": "336-621-4247",
        "full_address": "3922 High Rock Rd, Gibsonville, NC 27249",
        "street": "3922 High Rock Rd",
        "city": "Gibsonville",
        "postal_code": "27249",
        "state": "North Carolina",
        "reviews": "79",
        "working_hours": "{\"Monday\": \"8AM-1PM\", \"Tuesday\": \"8AM-1PM\", \"Wednesday\": \"8AM-1PM\", \"Thursday\": \"8AM-1PM\", \"Friday\": \"8AM-1PM\", \"Saturday\": \"8AM-3PM\", \"Sunday\": \"Closed\"}",
        "imported_at": "2025-08-23 16:58:33.980573+00",
        "dup_key": "apple farm|gibsonville|north carolina",
        "quality_score": "99",
        "is_primary": "TRUE",
        "latitude": "36.1560108",
        "longitude": "-79.6137572",
        "coord": "0101000020E6100000CF6B47CC47E753C051E97129F8134240",
        "has upick": "Unknown",
        "u-pick offerings": "",
        "u-pick sources": ""
      },
      {
        "id": "1118",
        "name": "Breeze Hill Farm",
        "site": "https://www.breezehillfarmpreserve.com/",
        "phone": "631-876-5159",
        "full_address": "31215 County Road - Route 48, Peconic, NY 11958",
        "street": "31215 County Road - Route 48",
        "city": "Peconic",
        "postal_code": "11958",
        "state": "New York",
        "reviews": "79",
        "working_hours": "{\"Monday\": \"9AM-5PM\", \"Tuesday\": \"Closed\", \"Wednesday\": \"Closed\", \"Thursday\": \"9AM-5PM\", \"Friday\": \"9AM-5PM\", \"Saturday\": \"9AM-5PM\", \"Sunday\": \"9AM-5PM\"}",
        "imported_at": "2025-08-23 16:58:33.980573+00",
        "dup_key": "breeze hill farm|peconic|new york",
        "quality_score": "149",
        "is_primary": "TRUE",
        "latitude": "41.0334156",
        "longitude": "-72.455402",
        "coord": "0101000020E61000001C226E4E251D52C08E965EF646844440",
        "has upick": "Unknown",
        "u-pick offerings": "",
        "u-pick sources": ""
      },
      {
        "id": "1194",
        "name": "Kidstopia Organic Blueberry Farm (2025 season ended)",
        "site": "",
        "phone": "",
        "full_address": "46 Western Ave, Sherborn, MA 01770",
        "street": "46 Western Ave",
        "city": "Sherborn",
        "postal_code": "1770",
        "state": "Massachusetts",
        "reviews": "71",
        "working_hours": "",
        "imported_at": "2025-08-23 16:58:33.980573+00",
        "dup_key": "kidstopia organic blueberry farm (2025 season ended)|sherborn|massachusetts",
        "quality_score": "71",
        "is_primary": "TRUE",
        "latitude": "42.2530023",
        "longitude": "-71.4085671",
        "coord": "0101000020E61000002E2E9FF625DA51C009281E6162204540",
        "has upick": "Unknown",
        "u-pick offerings": "",
        "u-pick sources": ""
      },
      {
        "id": "1215",
        "name": "Sunset Trail Farm of McKinney",
        "site": "http://www.sunsettrail.com/",
        "phone": "214-450-6255",
        "full_address": "1794 Sunset Trail, McKinney, TX 75071",
        "street": "1794 Sunset Trail",
        "city": "McKinney",
        "postal_code": "75071",
        "state": "Texas",
        "reviews": "68",
        "working_hours": "",
        "imported_at": "2025-08-23 16:58:33.980573+00",
        "dup_key": "sunset trail farm of mckinney|mckinney|texas",
        "quality_score": "138",
        "is_primary": "TRUE",
        "latitude": "33.2459035",
        "longitude": "-96.5841518",
        "coord": "0101000020E610000092393BBE622558C0683C11C4799F4040",
        "has upick": "Unknown",
        "u-pick offerings": "",
        "u-pick sources": ""
      },
      {
        "id": "1126",
        "name": "Hann Farms",
        "site": "http://www.hannfarmsmarket.com/",
        "phone": "614-491-0812",
        "full_address": "V27J+W7, 4600 Lockbourne Rd, Columbus, OH 43207",
        "street": "V27J+W7, 4600 Lockbourne Rd",
        "city": "Columbus",
        "postal_code": "43207",
        "state": "Ohio",
        "reviews": "78",
        "working_hours": "{\"Monday\": \"10AM-6PM\", \"Tuesday\": \"10AM-6PM\", \"Wednesday\": \"10AM-6PM\", \"Thursday\": \"10AM-6PM\", \"Friday\": \"10AM-6PM\", \"Saturday\": \"10AM-6PM\", \"Sunday\": \"12-5PM\"}",
        "imported_at": "2025-08-23 16:58:33.980573+00",
        "dup_key": "hann farms|columbus|ohio",
        "quality_score": "148",
        "is_primary": "TRUE",
        "latitude": "39.8660872",
        "longitude": "-82.964867",
        "coord": "0101000020E6100000567F8461C0BD54C0FBBD03F2DBEE4340",
        "has upick": "Unknown",
        "u-pick offerings": "",
        "u-pick sources": ""
      }
    ],
    "count": 20,
    "status": "ready_for_research"
  }
}